,TYPE,YEAR,MONTH,HUNDRED_BLOCK,h_block,full_address,lat,lon,lat_offset,lon_offset,cid
3,Theft From Auto Over $5000,2007,1,6XX CAMBIE ST,600 CAMBIE ST,"600 CAMBIE ST , Vancouver, BC, Canada",49.2801775,-123.111621,49.28038758,-123.1114532,1
4,Theft From Auto Over $5000,2007,1,9XX HORNBY ST,900 HORNBY ST,"900 HORNBY ST , Vancouver, BC, Canada",49.2813167,-123.1234445,49.28167168,-123.1230937,1
5,Theft From Auto Over $5000,2007,1,35XX W 49TH AVE,3500 W 49TH AVE,"3500 W 49TH AVE , Vancouver, BC, Canada",49.2273554,-123.1824192,49.22777332,-123.1819939,1
7,Theft From Auto Over $5000,2007,1,14XX E 20TH AVE,1400 E 20TH AVE,"1400 E 20TH AVE , Vancouver, BC, Canada",49.2525051,-123.07611,49.25288999,-123.0760096,1
8,Theft From Auto Over $5000,2007,1,11XX HOWE ST,1100 HOWE ST,"1100 HOWE ST , Vancouver, BC, Canada",49.278619,-123.1257033,49.27909849,-123.125527,1
9,Theft From Auto Over $5000,2007,1,8XX BLOCK NELSON ST,800 BLOCK NELSON ST,"800 BLOCK NELSON ST , Vancouver, BC, Canada",49.2798651,-123.1242481,49.28007577,-123.1240391,1
10,Theft From Auto Over $5000,2007,1,5XX W HASTINGS ST,500 W HASTINGS ST,"500 W HASTINGS ST , Vancouver, BC, Canada",49.2840058,-123.11209,49.28417411,-123.111886,1
11,Theft From Auto Over $5000,2007,1,11XX W HASTINGS ST,1100 W HASTINGS ST,"1100 W HASTINGS ST , Vancouver, BC, Canada",49.2878376,-123.1199394,49.28815896,-123.1198373,1
12,Theft From Auto Over $5000,2007,1,9XX SEYMOUR ST,900 SEYMOUR ST,"900 SEYMOUR ST , Vancouver, BC, Canada",49.27925,-123.12051,49.27965771,-123.1201143,1
13,Theft From Auto Over $5000,2007,1,12XX W 73RD AVE,1200 W 73RD AVE,"1200 W 73RD AVE , Vancouver, BC, Canada",49.204,-123.13362,49.20417123,-123.1334913,1
14,Theft From Auto Over $5000,2007,1,14XX ANDERSON ST,1400 ANDERSON ST,"1400 ANDERSON ST , Vancouver, BC, Canada",49.2708035,-123.135533,49.27111421,-123.1351392,1
16,Theft From Auto Over $5000,2007,1,10XX W GEORGIA ST,1000 W GEORGIA ST,"1000 W GEORGIA ST , Vancouver, BC, Canada",49.2843551,-123.1212978,49.2846062,-123.1209234,1
17,Theft From Auto Over $5000,2007,1,55XX OAK ST,5500 OAK ST,"5500 OAK ST , Vancouver, BC, Canada",49.2358268,-123.1278189,49.23619626,-123.1276538,1
18,Theft From Auto Over $5000,2007,2,19XX BEACH AVE,1900 BEACH AVE,"1900 BEACH AVE , Vancouver, BC, Canada",49.2885765,-123.1431627,49.28896667,-123.1429073,1
19,Theft From Auto Over $5000,2007,2,HELMCKEN ST / HORNBY ST,HELMCKEN ST / HORNBY ST,"HELMCKEN ST & HORNBY ST , Vancouver, BC, Canada",49.27948,-123.12656,49.27967633,-123.126141,1
20,Theft From Auto Over $5000,2007,2,33XX FIELDSTONE AVE,3300 FIELDSTONE AVE,"3300 FIELDSTONE AVE , Vancouver, BC, Canada",49.2081548,-123.0355282,49.20841716,-123.0350791,1
21,Theft From Auto Over $5000,2007,2,12XX W BROADWAY AVE,1200 W BROADWAY AVE,"1200 W BROADWAY AVE , Vancouver, BC, Canada",49.2633251,-123.1315828,49.26366449,-123.1313224,1
22,Theft From Auto Over $5000,2007,2,7XX GRANVILLE ST,700 GRANVILLE ST,"700 GRANVILLE ST , Vancouver, BC, Canada",49.2822179,-123.1182166,49.28264318,-123.1179033,1
24,Theft From Auto Over $5000,2007,2,5XX BLOCK E 11TH AVE,500 BLOCK E 11TH AVE,"500 BLOCK E 11TH AVE , Vancouver, BC, Canada",49.26038,-123.09282,49.260629,-123.0924646,1
25,Theft From Auto Over $5000,2007,2,47XX BLOCK GLADSTONE ST,4700 BLOCK GLADSTONE ST,"4700 BLOCK GLADSTONE ST , Vancouver, BC, Canada",49.2425937,-123.0625683,49.24302523,-123.0621279,1
26,Theft From Auto Over $5000,2007,2,1XX W GEORGIA ST,100 W GEORGIA ST,"100 W GEORGIA ST , Vancouver, BC, Canada",49.2787064,-123.1125227,49.27914978,-123.1124226,1
27,Theft From Auto Over $5000,2007,2,10XX NELSON ST,1000 NELSON ST,"1000 NELSON ST , Vancouver, BC, Canada",49.2811165,-123.1261926,49.28148405,-123.1258275,1
28,Theft From Auto Over $5000,2007,2,12XX BLOCK ROBSON ST,1200 BLOCK ROBSON ST,"1200 BLOCK ROBSON ST , Vancouver, BC, Canada",49.2859863,-123.1272122,49.28638209,-123.1270396,1
29,Theft From Auto Over $5000,2007,2,4XX SEYMOUR ST,400 SEYMOUR ST,"400 SEYMOUR ST , Vancouver, BC, Canada",49.2844743,-123.1129097,49.28485298,-123.1124831,1
30,Theft From Auto Over $5000,2007,2,7XX BLOCK W PENDER ST,700 BLOCK W PENDER ST,"700 BLOCK W PENDER ST , Vancouver, BC, Canada",49.2848,-123.11562,49.28525914,-123.1151545,1
31,Theft From Auto Over $5000,2007,3,11XX BLOCK HAMILTON ST,1100 BLOCK HAMILTON ST,"1100 BLOCK HAMILTON ST , Vancouver, BC, Canada",49.2757095,-123.1211894,49.27612094,-123.1209006,1
32,Theft From Auto Over $5000,2007,3,57XX MAIN ST,5700 MAIN ST,"5700 MAIN ST , Vancouver, BC, Canada",49.2329704,-123.1013145,49.23339061,-123.1008235,1
33,Theft From Auto Over $5000,2007,3,17XX BLOCK MCSPADDEN AVE,1700 BLOCK MCSPADDEN AVE,"1700 BLOCK MCSPADDEN AVE , Vancouver, BC, Canada",49.2663151,-123.0694898,49.26669764,-123.0693329,1
34,Theft From Auto Over $5000,2007,3,13XX ROBSON ST,1300 ROBSON ST,"1300 ROBSON ST , Vancouver, BC, Canada",49.28707,-123.12925,49.28738593,-123.1291447,1
35,Theft From Auto Over $5000,2007,3,17XX COMOX ST,1700 COMO0 ST,"1700 COMO0 ST , Vancouver, BC, Canada",49.2876055,-123.1383789,49.28785299,-123.1380562,1
36,Theft From Auto Over $5000,2007,3,19XX DUNBAR ST,1900 DUNBAR ST,"1900 DUNBAR ST , Vancouver, BC, Canada",49.2693333,-123.1833661,49.26951685,-123.1829001,1
37,Theft From Auto Over $5000,2007,3,25XX BLOCK W 10TH AVE,2500 BLOCK W 10TH AVE,"2500 BLOCK W 10TH AVE , Vancouver, BC, Canada",49.2628652,-123.1624155,49.26310207,-123.1622679,1
38,Theft From Auto Over $5000,2007,3,28XX BLOCK E 43RD AVE,2800 BLOCK E 43RD AVE,"2800 BLOCK E 43RD AVE , Vancouver, BC, Canada",49.2310247,-123.0485721,49.23127492,-123.048315,1
40,Theft From Auto Over $5000,2007,3,2XX COLUMBIA ST,200 COLUMBIA ST,"200 COLUMBIA ST , Vancouver, BC, Canada",49.2830811,-123.1019644,49.2835266,-123.1015377,1
41,Theft From Auto Over $5000,2007,3,5XX W 28TH AVE,500 W 28TH AVE,"500 W 28TH AVE , Vancouver, BC, Canada",49.2459652,-123.1159866,49.24624504,-123.1156496,1
42,Theft From Auto Over $5000,2007,3,9XX BLOCK HOWE ST,900 BLOCK HOWE ST,"900 BLOCK HOWE ST , Vancouver, BC, Canada",49.28043,-123.12265,49.28073683,-123.1221543,1
43,Theft From Auto Over $5000,2007,3,67XX MONTGOMERY ST,6700 MONTGOMERY ST,"6700 MONTGOMERY ST , Vancouver, BC, Canada",49.2248873,-123.1317513,49.22528215,-123.1313078,1
44,Theft From Auto Over $5000,2007,3,16XX PENDRELL ST,1600 PENDRELL ST,"1600 PENDRELL ST , Vancouver, BC, Canada",49.285896,-123.1378613,49.28610503,-123.1375422,1
45,Theft From Auto Over $5000,2007,3,1XX E CORDOVA ST,100 E CORDOVA ST,"100 E CORDOVA ST , Vancouver, BC, Canada",49.28207,-123.10198,49.28245808,-123.1017109,1
46,Theft From Auto Over $5000,2007,3,MAIN ST / E PENDER ST,MAIN ST / E PENDER ST,"MAIN ST & E PENDER ST , Vancouver, BC, Canada",49.28038,-123.0997,49.28053718,-123.0994216,1
47,Theft From Auto Over $5000,2007,4,21XX CAMBRIDGE ST,2100 CAMBRIDGE ST,"2100 CAMBRIDGE ST , Vancouver, BC, Canada",49.2865051,-123.0606893,49.28694429,-123.060365,1
48,Theft From Auto Over $5000,2007,4,10XX E CORDOVA ST,1000 E CORDOVA ST,"1000 E CORDOVA ST , Vancouver, BC, Canada",49.2818849,-123.0821582,49.28230136,-123.0820473,1
49,Theft From Auto Over $5000,2007,4,83XX ST GEORGE ST,8300 ST GEORGE ST,"8300 ST GEORGE ST , Vancouver, BC, Canada",49.2093614,-123.093784,49.20969351,-123.0933793,1
50,Theft From Auto Over $5000,2007,4,4XX BLOCK COLUMBIA ST,400 BLOCK COLUMBIA ST,"400 BLOCK COLUMBIA ST , Vancouver, BC, Canada",49.2812509,-123.102044,49.28161859,-123.1015487,1
51,Theft From Auto Over $5000,2007,4,7XX DRAKE ST,700 DRAKE ST,"700 DRAKE ST , Vancouver, BC, Canada",49.2760756,-123.1280299,49.27624372,-123.1275851,1
52,Theft From Auto Over $5000,2007,4,7XX BLOCK W GEORGIA ST,700 BLOCK W GEORGIA ST,"700 BLOCK W GEORGIA ST , Vancouver, BC, Canada",49.28276,-123.11871,49.28323105,-123.1185469,1
53,Theft From Auto Over $5000,2007,4,7XX W GEORGIA ST,700 W GEORGIA ST,"700 W GEORGIA ST , Vancouver, BC, Canada",49.28276,-123.11871,49.2829898,-123.1185266,1
54,Theft From Auto Over $5000,2007,4,7XX DRAKE ST,700 DRAKE ST,"700 DRAKE ST , Vancouver, BC, Canada",49.2760756,-123.1280299,49.27630596,-123.1275457,1
55,Theft From Auto Over $5000,2007,4,33XX KINGSWAY AVE,3300 KINGSWAY AVE,"3300 KINGSWAY AVE , Vancouver, BC, Canada",49.2339245,-123.0357616,49.23411597,-123.035659,1
56,Theft From Auto Over $5000,2007,4,41XX BLOCK GLADSTONE ST,4100 BLOCK GLADSTONE ST,"4100 BLOCK GLADSTONE ST , Vancouver, BC, Canada",49.2487247,-123.0603851,49.24905957,-123.0601363,1
57,Theft From Auto Over $5000,2007,4,7XX SEYMOUR ST,700 SEYMOUR ST,"700 SEYMOUR ST , Vancouver, BC, Canada",49.2816172,-123.1172078,49.28211692,-123.1167951,1
58,Theft From Auto Over $5000,2007,4,1XX UNION ST,100 UNION ST,"100 UNION ST , Vancouver, BC, Canada",49.2775153,-123.1018806,49.27764314,-123.1017731,1
59,Theft From Auto Over $5000,2007,4,8XX LAGOON DR,800 LAGOON DR,"800 LAGOON DR , Vancouver, BC, Canada",49.2932736,-123.1384823,49.2934949,-123.138065,1
60,Theft From Auto Over $5000,2007,4,3XX WATER ST,300 WATER ST,"300 WATER ST , Vancouver, BC, Canada",49.2842264,-123.1090181,49.28442267,-123.1086091,1
61,Theft From Auto Over $5000,2007,4,10XX BARCLAY ST,1000 BARCLAY ST,"1000 BARCLAY ST , Vancouver, BC, Canada",49.2818261,-123.1251112,49.28221837,-123.1249231,1
62,Theft From Auto Over $5000,2007,4,7XX NICOLA ST,700 NICOLA ST,"700 NICOLA ST , Vancouver, BC, Canada",49.2895083,-123.1295395,49.28983642,-123.1291933,1
63,Theft From Auto Over $5000,2007,4,7XX W PENDER ST,700 W PENDER ST,"700 W PENDER ST , Vancouver, BC, Canada",49.2848,-123.11562,49.28490329,-123.1154988,1
65,Theft From Auto Over $5000,2007,4,4XX BLOCK HAMILTON ST,400 BLOCK HAMILTON ST,"400 BLOCK HAMILTON ST , Vancouver, BC, Canada",49.2825607,-123.1100148,49.28305637,-123.1097347,1
66,Theft From Auto Over $5000,2007,4,1XX BLOCK NELSON ST,100 BLOCK NELSON ST,"100 BLOCK NELSON ST , Vancouver, BC, Canada",49.2753464,-123.1172626,49.27571192,-123.1167895,1
67,Theft From Auto Over $5000,2007,4,2XX BLOCK E 6TH AVE,200 BLOCK E 6TH AVE,"200 BLOCK E 6TH AVE , Vancouver, BC, Canada",49.2653751,-123.1006498,49.26576096,-123.1005219,1
68,Theft From Auto Over $5000,2007,4,16XX JOHNSTON ST,1600 JOHNSTON ST,"1600 JOHNSTON ST , Vancouver, BC, Canada",49.2718907,-123.135216,49.27218431,-123.1348138,1
69,Theft From Auto Over $5000,2007,5,RICHARDS ST / W CORDOVA ST,RICHARDS ST / W CORDOVA ST,"RICHARDS ST & W CORDOVA ST , Vancouver, BC, Canada",49.28465,-123.11085,49.28480068,-123.1106966,1
70,Theft From Auto Over $5000,2007,5,8XX W 13TH AVE,800 W 13TH AVE,"800 W 13TH AVE , Vancouver, BC, Canada",49.2594451,-123.1221342,49.2597923,-123.1219708,1
71,Theft From Auto Over $5000,2007,5,5XX TAYLOR ST,500 TAYLOR ST,"500 TAYLOR ST , Vancouver, BC, Canada",49.2805107,-123.105474,49.28068337,-123.1050849,1
72,Theft From Auto Over $5000,2007,5,3XX BLOCK W CORDOVA ST,300 BLOCK W CORDOVA ST,"300 BLOCK W CORDOVA ST , Vancouver, BC, Canada",49.2834866,-123.109353,49.28398545,-123.109063,1
73,Theft From Auto Over $5000,2007,5,17XX COMOX ST,1700 COMO0 ST,"1700 COMO0 ST , Vancouver, BC, Canada",49.2876055,-123.1383789,49.28795674,-123.1382255,1
74,Theft From Auto Over $5000,2007,5,10XX ALBERNI ST,1000 ALBERNI ST,"1000 ALBERNI ST , Vancouver, BC, Canada",49.2839249,-123.1219471,49.28427068,-123.1217872,1
75,Theft From Auto Over $5000,2007,5,COLUMBIA ST / POWELL ST,COLUMBIA ST / POWELL ST,"COLUMBIA ST & POWELL ST , Vancouver, BC, Canada",49.28324,-123.10217,49.28341004,-123.1018902,1
76,Theft From Auto Over $5000,2007,5,61XX BLENHEIM ST,6100 BLENHEIM ST,"6100 BLENHEIM ST , Vancouver, BC, Canada",49.230869,-123.1785069,49.23128606,-123.1782233,1
77,Theft From Auto Over $5000,2007,5,23XX COLUMBIA ST,2300 COLUMBIA ST,"2300 COLUMBIA ST , Vancouver, BC, Canada",49.2646221,-123.1093151,49.26499907,-123.1092143,1
78,Theft From Auto Over $5000,2007,5,15XX W 16TH AVE,1500 W 16TH AVE,"1500 W 16TH AVE , Vancouver, BC, Canada",49.2568399,-123.13923,49.25705,-123.138745,1
79,Theft From Auto Over $5000,2007,5,27XX ARBUTUS ST,2700 ARBUTUS ST,"2700 ARBUTUS ST , Vancouver, BC, Canada",49.2617916,-123.1528344,49.26220242,-123.1525551,1
80,Theft From Auto Over $5000,2007,5,4XX SEYMOUR ST,400 SEYMOUR ST,"400 SEYMOUR ST , Vancouver, BC, Canada",49.2844743,-123.1129097,49.28495698,-123.1127986,1
81,Theft From Auto Over $5000,2007,5,15XX BLOCK OLD BRIDGE ST,1500 BLOCK OLD BRIDGE ST,"1500 BLOCK OLD BRIDGE ST , Vancouver, BC, Canada",49.2698921,-123.1351859,49.27004699,-123.1349848,1
82,Theft From Auto Over $5000,2007,5,12XX MELVILLE ST,1200 MELVILLE ST,"1200 MELVILLE ST , Vancouver, BC, Canada",49.2878266,-123.124373,49.28821635,-123.1241543,1
83,Theft From Auto Over $5000,2007,5,7XX GRANVILLE ST,700 GRANVILLE ST,"700 GRANVILLE ST , Vancouver, BC, Canada",49.2822179,-123.1182166,49.28259572,-123.1178283,1
84,Theft From Auto Over $5000,2007,5,RICHARDS ST / W GEORGIA ST,RICHARDS ST / W GEORGIA ST,"RICHARDS ST & W GEORGIA ST , Vancouver, BC, Canada",49.2812399,-123.11614,49.28169304,-123.1156789,1
85,Theft From Auto Over $5000,2007,5,1XX BLOCK W GEORGIA ST,100 BLOCK W GEORGIA ST,"100 BLOCK W GEORGIA ST , Vancouver, BC, Canada",49.2787064,-123.1125227,49.27914585,-123.1121236,1
86,Theft From Auto Over $5000,2007,5,11XX BLOCK NELSON ST,1100 BLOCK NELSON ST,"1100 BLOCK NELSON ST , Vancouver, BC, Canada",49.2824647,-123.1282263,49.28264356,-123.1280361,1
87,Theft From Auto Over $5000,2007,5,33XX W 7TH AVE,3300 W 7TH AVE,"3300 W 7TH AVE , Vancouver, BC, Canada",49.2658051,-123.1780015,49.26630328,-123.1775961,1
88,Theft From Auto Over $5000,2007,6,14XX ANDERSON ST,1400 ANDERSON ST,"1400 ANDERSON ST , Vancouver, BC, Canada",49.2708035,-123.135533,49.27106908,-123.1350336,1
89,Theft From Auto Over $5000,2007,6,7XX BLOCK THURLOW ST,700 BLOCK THURLOW ST,"700 BLOCK THURLOW ST , Vancouver, BC, Canada",49.2854289,-123.1233068,49.28562823,-123.1228678,1
90,Theft From Auto Over $5000,2007,6,18XX ADANAC ST,1800 ADANAC ST,"1800 ADANAC ST , Vancouver, BC, Canada",49.2774451,-123.0680718,49.27780542,-123.0679291,1
91,Theft From Auto Over $5000,2007,6,GRANVILLE STREET BRDG / SEYMOUR ST OFRP,GRANVILLE STREET BRDG / SEYMOUR ST OFRP,"GRANVILLE STREET BRDG & SEYMOUR ST OFRP , Vancouver, BC, Canada",49.27506,-123.12941,49.27551615,-123.129041,1
92,Theft From Auto Over $5000,2007,6,7XX GRANVILLE ST,700 GRANVILLE ST,"700 GRANVILLE ST , Vancouver, BC, Canada",49.2822179,-123.1182166,49.2826076,-123.118111,1
93,Theft From Auto Over $5000,2007,6,1XX BLOCK POWELL ST,100 BLOCK POWELL ST,"100 BLOCK POWELL ST , Vancouver, BC, Canada",49.28297,-123.10184,49.28321035,-123.1016223,1
94,Theft From Auto Over $5000,2007,6,32XX BLOCK ST CATHERINES ST,3200 BLOCK ST CATHERINES ST,"3200 BLOCK ST CATHERINES ST , Vancouver, BC, Canada",49.2562525,-123.0853441,49.25635423,-123.0850542,1
96,Theft From Auto Over $5000,2007,6,43XX WINDSOR ST,4300 WINDSOR ST,"4300 WINDSOR ST , Vancouver, BC, Canada",49.2464115,-123.0837163,49.24656262,-123.0833476,1
97,Theft From Auto Over $5000,2007,6,27XX CHANDLERY PL,2700 CHANDLERY PL,"2700 CHANDLERY PL , Vancouver, BC, Canada",49.2067448,-123.0512758,49.20694316,-123.0510813,1
99,Theft From Auto Over $5000,2007,6,W PENDER ST / TAYLOR ST,W PENDER ST / TAYLOR ST,"W PENDER ST & TAYLOR ST , Vancouver, BC, Canada",49.28073,-123.10558,49.28094009,-123.1054124,1
100,Theft From Auto Over $5000,2007,6,3XX BLOCK TERMINAL AVE,300 BLOCK TERMINAL AVE,"300 BLOCK TERMINAL AVE , Vancouver, BC, Canada",49.2722001,-123.0978569,49.2723434,-123.0976467,1
101,Theft From Auto Over $5000,2007,7,1XX E 3RD AVE,100 E 3RD AVE,"100 E 3RD AVE , Vancouver, BC, Canada",49.2681151,-123.1025304,49.26849067,-123.1022419,1
102,Theft From Auto Over $5000,2007,7,SEYMOUR ST / W PENDER ST,SEYMOUR ST / W PENDER ST,"SEYMOUR ST & W PENDER ST , Vancouver, BC, Canada",49.28401,-123.11388,49.28445903,-123.1136232,1
103,Theft From Auto Over $5000,2007,7,14XX BLOCK ANDERSON ST,1400 BLOCK ANDERSON ST,"1400 BLOCK ANDERSON ST , Vancouver, BC, Canada",49.2708035,-123.135533,49.27109234,-123.1353217,1
104,Theft From Auto Over $5000,2007,7,1XX BLOCK DUNLEVY AVE,100 BLOCK DUNLEVY AVE,"100 BLOCK DUNLEVY AVE , Vancouver, BC, Canada",49.283901,-123.0950641,49.28439749,-123.094876,1
105,Theft From Auto Over $5000,2007,7,11XX BLOCK ALBERNI ST,1100 BLOCK ALBERNI ST,"1100 BLOCK ALBERNI ST , Vancouver, BC, Canada",49.2852654,-123.1239986,49.28572346,-123.1238595,1
106,Theft From Auto Over $5000,2007,7,8XX ABBOTT ST,800 ABBOTT ST,"800 ABBOTT ST , Vancouver, BC, Canada",49.28035,-123.10761,49.28053086,-123.1072772,1
107,Theft From Auto Over $5000,2007,7,7XX W 14TH AVE,700 W 14TH AVE,"700 W 14TH AVE , Vancouver, BC, Canada",49.2584951,-123.1202122,49.25860423,-123.1197898,1
109,Theft From Auto Over $5000,2007,7,14XX BLOCK LAKEWOOD DR,1400 BLOCK LAKEWOOD DR,"1400 BLOCK LAKEWOOD DR , Vancouver, BC, Canada",49.27185,-123.06153,49.27204696,-123.0611753,1
110,Theft From Auto Over $5000,2007,7,1XX WATER ST,100 WATER ST,"100 WATER ST , Vancouver, BC, Canada",49.2837861,-123.1065744,49.28410639,-123.106474,1
111,Theft From Auto Over $5000,2007,7,W HASTINGS ST / HOWE ST,W HASTINGS ST / HOWE ST,"W HASTINGS ST & HOWE ST , Vancouver, BC, Canada",49.28595,-123.11487,49.28632485,-123.1143715,1
112,Theft From Auto Over $5000,2007,7,8XX BLOCK STATION ST,800 BLOCK STATION ST,"800 BLOCK STATION ST , Vancouver, BC, Canada",49.2765789,-123.0988255,49.27678094,-123.0984405,1
113,Theft From Auto Over $5000,2007,7,W 41ST AVE / YEW ST,W 41ST AVE / YEW ST,"W 41ST AVE & YEW ST , Vancouver, BC, Canada",49.23465,-123.15842,49.23511581,-123.1580128,1
114,Theft From Auto Over $5000,2007,8,32XX DIEPPE DR,3200 DIEPPE DR,"3200 DIEPPE DR , Vancouver, BC, Canada",49.2566201,-123.0266801,49.25696812,-123.0263969,1
115,Theft From Auto Over $5000,2007,8,15XX E 12TH AVE,1500 E 12TH AVE,"1500 E 12TH AVE , Vancouver, BC, Canada",49.2594551,-123.0734074,49.25971124,-123.0729643,1
116,Theft From Auto Over $5000,2007,8,7XX THURLOW ST,700 THURLOW ST,"700 THURLOW ST , Vancouver, BC, Canada",49.2854289,-123.1233068,49.28563635,-123.1228377,1
117,Theft From Auto Over $5000,2007,8,7XX BLOCK E 19TH AVE,700 BLOCK E 19TH AVE,"700 BLOCK E 19TH AVE , Vancouver, BC, Canada",49.2536051,-123.0897733,49.25407863,-123.089427,1
118,Theft From Auto Over $5000,2007,8,18XX BLOCK COMMERCIAL DR,1800 BLOCK COMMERCIAL DR,"1800 BLOCK COMMERCIAL DR , Vancouver, BC, Canada",49.2685675,-123.0695151,49.26889377,-123.069365,1
119,Theft From Auto Over $5000,2007,8,12XX BLOCK GRANVILLE ST,1200 BLOCK GRANVILLE ST,"1200 BLOCK GRANVILLE ST , Vancouver, BC, Canada",49.2769284,-123.1262661,49.27733234,-123.1258392,1
120,Theft From Auto Over $5000,2007,8,11XX GRANVILLE ST,1100 GRANVILLE ST,"1100 GRANVILLE ST , Vancouver, BC, Canada",49.27778,-123.12465,49.2782274,-123.1242964,1
121,Theft From Auto Over $5000,2007,8,4XX BLOCK COLUMBIA ST,400 BLOCK COLUMBIA ST,"400 BLOCK COLUMBIA ST , Vancouver, BC, Canada",49.2812509,-123.102044,49.28160133,-123.1018518,1
122,Theft From Auto Over $5000,2007,8,4XX BROUGHTON ST,400 BROUGHTON ST,"400 BROUGHTON ST , Vancouver, BC, Canada",49.2905505,-123.1259189,49.29097299,-123.1256075,1
123,Theft From Auto Over $5000,2007,8,20XX W 12TH AVE,2000 W 12TH AVE,"2000 W 12TH AVE , Vancouver, BC, Canada",49.26068,-123.15104,49.26113647,-123.1508245,1
124,Theft From Auto Over $5000,2007,8,4XX CAMBIE ST,400 CAMBIE ST,"400 CAMBIE ST , Vancouver, BC, Canada",49.2824449,-123.1093962,49.28261073,-123.1092065,1
125,Theft From Auto Over $5000,2007,8,12XX W PENDER ST,1200 W PENDER ST,"1200 W PENDER ST , Vancouver, BC, Canada",49.2882976,-123.123589,49.28876491,-123.1232428,1
126,Theft From Auto Over $5000,2007,8,20XX BLOCK FIR ST,2000 BLOCK FIR ST,"2000 BLOCK FIR ST , Vancouver, BC, Canada",49.2678847,-123.1406601,49.26808023,-123.1404994,1
127,Theft From Auto Over $5000,2007,8,10XX W WATERFRONT RD,1000 W WATERFRONT RD,"1000 W WATERFRONT RD , Vancouver, BC, Canada",49.2866,-123.11081,49.28699081,-123.1104146,1
128,Theft From Auto Over $5000,2007,8,12XX DAVIE ST,1200 DAVIE ST,"1200 DAVIE ST , Vancouver, BC, Canada",49.2817662,-123.1336116,49.28210228,-123.1333594,1
129,Theft From Auto Over $5000,2007,8,HEATLEY AVE / E PENDER ST,HEATLEY AVE / E PENDER ST,"HEATLEY AVE & E PENDER ST , Vancouver, BC, Canada",49.2802,-123.08951,49.28057218,-123.0891235,1
130,Theft From Auto Over $5000,2007,8,1XX E PENDER ST,100 E PENDER ST,"100 E PENDER ST , Vancouver, BC, Canada",49.28017,-123.10214,49.28065486,-123.1017526,1
131,Theft From Auto Over $5000,2007,8,8XX ROBSON ST,800 ROBSON ST,"800 ROBSON ST , Vancouver, BC, Canada",49.2818944,-123.1208755,49.28203131,-123.1206205,1
132,Theft From Auto Over $5000,2007,8,4XX KEEFER ST,400 KEEFER ST,"400 KEEFER ST , Vancouver, BC, Canada",49.2792229,-123.095086,49.27957675,-123.0946253,1
133,Theft From Auto Over $5000,2007,8,7XX BLOCK ROBSON ST,700 BLOCK ROBSON ST,"700 BLOCK ROBSON ST , Vancouver, BC, Canada",49.2813352,-123.1200183,49.28173111,-123.1198969,1
134,Theft From Auto Over $5000,2007,8,10XX BEACH AVE,1000 BEACH AVE,"1000 BEACH AVE , Vancouver, BC, Canada",49.27562,-123.1342,49.27582264,-123.1340838,1
135,Theft From Auto Over $5000,2007,8,20XX BLOCK YEW ST,2000 BLOCK YEW ST,"2000 BLOCK YEW ST , Vancouver, BC, Canada",49.268,-123.1549347,49.26833019,-123.1545159,1
136,Theft From Auto Over $5000,2007,8,68XX WILTSHIRE ST,6800 WILTSHIRE ST,"6800 WILTSHIRE ST , Vancouver, BC, Canada",49.2240045,-123.1464641,49.22436054,-123.1460901,1
137,Theft From Auto Over $5000,2007,8,9XX BLOCK CHILCO ST,900 BLOCK CHILCO ST,"900 BLOCK CHILCO ST , Vancouver, BC, Canada",49.2923129,-123.139757,49.29266979,-123.1393892,1
138,Theft From Auto Over $5000,2007,8,DRAKE ST / PACIFIC BLVD,DRAKE ST / PACIFIC BLVD,"DRAKE ST & PACIFIC BLVD , Vancouver, BC, Canada",49.2734,-123.1236,49.27378352,-123.1232344,1
139,Theft From Auto Over $5000,2007,8,6XX MOBERLY RD,600 MOBERLY RD,"600 MOBERLY RD , Vancouver, BC, Canada",49.26649,-123.11864,49.2669111,-123.1183795,1
140,Theft From Auto Over $5000,2007,8,6XX MOBERLY RD,600 MOBERLY RD,"600 MOBERLY RD , Vancouver, BC, Canada",49.26649,-123.11864,49.26691601,-123.1185345,1
141,Theft From Auto Over $5000,2007,8,18XX MAIN ST,1800 MAIN ST,"1800 MAIN ST , Vancouver, BC, Canada",49.26872,-123.10042,49.26887968,-123.100283,1
142,Theft From Auto Over $5000,2007,8,SMITHE ST / HORNBY ST,SMITHE ST / HORNBY ST,"SMITHE ST & HORNBY ST , Vancouver, BC, Canada",49.28155,-123.12337,49.28203136,-123.122888,1
143,Theft From Auto Over $5000,2007,8,16XX JOHNSTON ST,1600 JOHNSTON ST,"1600 JOHNSTON ST , Vancouver, BC, Canada",49.2718907,-123.135216,49.27226504,-123.1349939,1
144,Theft From Auto Over $5000,2007,8,MAIN ST / E 36TH AVE,MAIN ST / E 36TH AVE,"MAIN ST & E 36TH AVE , Vancouver, BC, Canada",49.23814,-123.10159,49.23825707,-123.1011286,1
145,Theft From Auto Over $5000,2007,8,11XX HOWE ST,1100 HOWE ST,"1100 HOWE ST , Vancouver, BC, Canada",49.278619,-123.1257033,49.27878763,-123.1252575,1
146,Theft From Auto Over $5000,2007,9,8XX BLOCK RICHARDS ST,800 BLOCK RICHARDS ST,"800 BLOCK RICHARDS ST , Vancouver, BC, Canada",49.2798686,-123.1179346,49.28004043,-123.1174552,1
147,Theft From Auto Over $5000,2007,9,2XX E 18TH AVE,200 E 18TH AVE,"200 E 18TH AVE , Vancouver, BC, Canada",49.2546451,-123.1005486,49.25493681,-123.1000535,1
148,Theft From Auto Over $5000,2007,9,26XX GRANVILLE ST,2600 GRANVILLE ST,"2600 GRANVILLE ST , Vancouver, BC, Canada",49.2624943,-123.138405,49.26275986,-123.1382495,1
149,Theft From Auto Over $5000,2007,9,7XX W GEORGIA ST,700 W GEORGIA ST,"700 W GEORGIA ST , Vancouver, BC, Canada",49.28276,-123.11871,49.28290282,-123.1182448,1
150,Theft From Auto Over $5000,2007,9,1XX W CORDOVA ST,100 W CORDOVA ST,"100 W CORDOVA ST , Vancouver, BC, Canada",49.2828258,-123.1070009,49.28313891,-123.1068701,1
151,Theft From Auto Over $5000,2007,9,24XX BLOCK HEATHER ST,2400 BLOCK HEATHER ST,"2400 BLOCK HEATHER ST , Vancouver, BC, Canada",49.2640502,-123.1196673,49.26438456,-123.1195153,1
152,Theft From Auto Over $5000,2007,9,24XX YORK AVE,2400 YORK AVE,"2400 YORK AVE , Vancouver, BC, Canada",49.2716651,-123.1598914,49.27187124,-123.1593914,1
153,Theft From Auto Over $5000,2007,9,18XX E HASTINGS ST,1800 E HASTINGS ST,"1800 E HASTINGS ST , Vancouver, BC, Canada",49.2810646,-123.0679732,49.28143458,-123.0678523,1
154,Theft From Auto Over $5000,2007,9,10XX E 10TH AVE,1000 E 10TH AVE,"1000 E 10TH AVE , Vancouver, BC, Canada",49.2613551,-123.0831093,49.2616878,-123.0827848,1
155,Theft From Auto Over $5000,2007,9,11XX BLOCK W KING EDWARD AVE,1100 BLOCK W KING EDWARD AVE,"1100 BLOCK W KING EDWARD AVE , Vancouver, BC, Canada",49.2490551,-123.1300022,49.24940422,-123.1296411,1
156,Theft From Auto Over $5000,2007,9,45XX PRINCE ALBERT ST,4500 PRINCE ALBERT ST,"4500 PRINCE ALBERT ST , Vancouver, BC, Canada",49.2448807,-123.0877551,49.24535572,-123.0874931,1
157,Theft From Auto Over $5000,2007,10,9XX BLOCK E 54TH AVE,900 BLOCK E 54TH AVE,"900 BLOCK E 54TH AVE , Vancouver, BC, Canada",49.2204159,-123.086254,49.22069342,-123.0861073,1
158,Theft From Auto Over $5000,2007,10,86XX BLOCK OSLER ST,8600 BLOCK OSLER ST,"8600 BLOCK OSLER ST , Vancouver, BC, Canada",49.2082896,-123.1314163,49.20872884,-123.131248,1
160,Theft From Auto Over $5000,2007,10,48XX VICTORIA DR,4800 VICTORIA DR,"4800 VICTORIA DR , Vancouver, BC, Canada",49.2413749,-123.0650946,49.24160464,-123.064658,1
161,Theft From Auto Over $5000,2007,10,9XX BURRARD ST,900 BURRARD ST,"900 BURRARD ST , Vancouver, BC, Canada",49.2815299,-123.12422,49.28190253,-123.1237499,1
162,Theft From Auto Over $5000,2007,10,8XX BLOCK W 8TH AVE,800 BLOCK W 8TH AVE,"800 BLOCK W 8TH AVE , Vancouver, BC, Canada",49.2641051,-123.1219601,49.2642774,-123.1218294,1
163,Theft From Auto Over $5000,2007,10,24XX E 8TH AVE,2400 E 8TH AVE,"2400 E 8TH AVE , Vancouver, BC, Canada",49.2628751,-123.0564059,49.26334696,-123.0562703,1
164,Theft From Auto Over $5000,2007,10,56XX CARNARVON ST,5600 CARNARVON ST,"5600 CARNARVON ST , Vancouver, BC, Canada",49.2355696,-123.1729151,49.23569981,-123.1724932,1
165,Theft From Auto Over $5000,2007,10,5XX E 15TH AVE,500 E 15TH AVE,"500 E 15TH AVE , Vancouver, BC, Canada",49.2572034,-123.0935045,49.25747449,-123.0930347,1
166,Theft From Auto Over $5000,2007,10,20XX BLOCK FERNDALE ST,2000 BLOCK FERNDALE ST,"2000 BLOCK FERNDALE ST , Vancouver, BC, Canada",49.2795704,-123.0636374,49.27980105,-123.0631933,1
167,Theft From Auto Over $5000,2007,10,BURQUITLAM DR / HARRISON DR,BURQUITLAM DR / HARRISON DR,"BURQUITLAM DR & HARRISON DR , Vancouver, BC, Canada",49.20973,-123.05701,49.20996511,-123.0567862,1
168,Theft From Auto Over $5000,2007,10,23XX BLOCK YORK AVE,2300 BLOCK YORK AVE,"2300 BLOCK YORK AVE , Vancouver, BC, Canada",49.2716251,-123.1575027,49.27185862,-123.1573911,1
169,Theft From Auto Over $5000,2007,10,4XX W 8TH AVE,400 W 8TH AVE,"400 W 8TH AVE , Vancouver, BC, Canada",49.2637752,-123.1131071,49.26423505,-123.112633,1
170,Theft From Auto Over $5000,2007,11,10XX HORNBY ST,1000 HORNBY ST,"1000 HORNBY ST , Vancouver, BC, Canada",49.2802739,-123.1250606,49.28070434,-123.1246514,1
171,Theft From Auto Over $5000,2007,11,5XX E 58TH AVE,500 E 58TH AVE,"500 E 58TH AVE , Vancouver, BC, Canada",49.2170412,-123.0951737,49.21715963,-123.0948123,1
172,Theft From Auto Over $5000,2007,11,14XX GRAVELEY ST,1400 GRAVELEY ST,"1400 GRAVELEY ST , Vancouver, BC, Canada",49.2704247,-123.0751527,49.2706572,-123.0748992,1
173,Theft From Auto Over $5000,2007,11,27XX COMMERCIAL DR,2700 COMMERCIAL DR,"2700 COMMERCIAL DR , Vancouver, BC, Canada",49.260333,-123.0696751,49.26051375,-123.0693387,1
174,Theft From Auto Over $5000,2007,11,32XX BLOCK W 11TH AVE,3200 BLOCK W 11TH AVE,"3200 BLOCK W 11TH AVE , Vancouver, BC, Canada",49.2622651,-123.1761816,49.2625666,-123.1759039,1
175,Theft From Auto Over $5000,2007,11,12XX W 70TH AVE,1200 W 70TH AVE,"1200 W 70TH AVE , Vancouver, BC, Canada",49.2083751,-123.1334904,49.20874435,-123.1332716,1
176,Theft From Auto Over $5000,2007,11,PACIFIC ST / RICHARDS ST,PACIFIC ST / RICHARDS ST,"PACIFIC ST & RICHARDS ST , Vancouver, BC, Canada",49.2738,-123.12745,49.27400638,-123.1272624,1
177,Theft From Auto Over $5000,2007,11,6XX CARRALL ST,600 CARRALL ST,"600 CARRALL ST , Vancouver, BC, Canada",49.2789971,-123.104363,49.27914238,-123.1041878,1
178,Theft From Auto Over $5000,2007,11,7XX W GEORGIA ST,700 W GEORGIA ST,"700 W GEORGIA ST , Vancouver, BC, Canada",49.28276,-123.11871,49.2830276,-123.1182956,1
179,Theft From Auto Over $5000,2007,11,9XX BLOCK HORNBY ST,900 BLOCK HORNBY ST,"900 BLOCK HORNBY ST , Vancouver, BC, Canada",49.2813167,-123.1234445,49.28171423,-123.123246,1
180,Theft From Auto Over $5000,2007,11,ALBERNI ST / CARDERO ST,ALBERNI ST / CARDERO ST,"ALBERNI ST & CARDERO ST , Vancouver, BC, Canada",49.29015,-123.13128,49.29056924,-123.1310619,1
181,Theft From Auto Over $5000,2007,11,4XX BLOCK STANLEY PARK DR,400 BLOCK STANLEY PARK DR,"400 BLOCK STANLEY PARK DR , Vancouver, BC, Canada",49.296819,-123.1347293,49.2971918,-123.1345783,1
182,Theft From Auto Over $5000,2007,11,11XX SE MARINE DR,1100 SE MARINE DR,"1100 SE MARINE DR , Vancouver, BC, Canada",49.2109851,-123.0837497,49.21137182,-123.0832888,1
183,Theft From Auto Over $5000,2007,11,CHILCO ST / HARO ST,CHILCO ST / HARO ST,"CHILCO ST & HARO ST , Vancouver, BC, Canada",49.2927,-123.13946,49.29300682,-123.1392288,1
185,Theft From Auto Over $5000,2007,11,21XX W BROADWAY AVE,2100 W BROADWAY AVE,"2100 W BROADWAY AVE , Vancouver, BC, Canada",49.2637051,-123.1531502,49.26393573,-123.1526942,1
186,Theft From Auto Over $5000,2007,11,12XX E 7TH AVE,1200 E 7TH AVE,"1200 E 7TH AVE , Vancouver, BC, Canada",49.2641051,-123.0791816,49.26428023,-123.0788254,1
187,Theft From Auto Over $5000,2007,11,14XX BURRARD ST,1400 BURRARD ST,"1400 BURRARD ST , Vancouver, BC, Canada",49.276171,-123.1332194,49.27650704,-123.1330681,1
188,Theft From Auto Over $5000,2007,11,BURRARD ST / SMITHE ST,BURRARD ST / SMITHE ST,"BURRARD ST & SMITHE ST , Vancouver, BC, Canada",49.28221,-123.12436,49.28260879,-123.1240737,1
189,Theft From Auto Over $5000,2007,12,88XX OSLER ST,8800 OSLER ST,"8800 OSLER ST , Vancouver, BC, Canada",49.205533,-123.1315052,49.20564079,-123.1310546,1
190,Theft From Auto Over $5000,2007,12,MAIN ST / E 17TH AVE,MAIN ST / E 17TH AVE,"MAIN ST & E 17TH AVE , Vancouver, BC, Canada",49.25571,-123.10128,49.25581471,-123.100854,1
191,Theft From Auto Over $5000,2007,12,1XX E 23RD AVE,100 E 23RD AVE,"100 E 23RD AVE , Vancouver, BC, Canada",49.2502043,-123.1027002,49.25039465,-123.102292,1
193,Theft From Auto Over $5000,2007,12,8XX BURRARD ST,800 BURRARD ST,"800 BURRARD ST , Vancouver, BC, Canada",49.2827399,-123.12297,49.28315258,-123.1224865,1
195,Theft From Auto Over $5000,2007,12,9XX BURRARD ST,900 BURRARD ST,"900 BURRARD ST , Vancouver, BC, Canada",49.2815299,-123.12422,49.28186682,-123.1238069,1
196,Theft From Auto Over $5000,2007,12,16XX NAPIER ST,1600 NAPIER ST,"1600 NAPIER ST , Vancouver, BC, Canada",49.2747251,-123.0699693,49.27512451,-123.0695323,1
197,Theft From Auto Under $5000,2007,1,18XX W 10TH AVE,1800 W 10TH AVE,"1800 W 10TH AVE , Vancouver, BC, Canada",49.2626151,-123.1460128,49.26298952,-123.1459042,1
198,Theft From Auto Under $5000,2007,1,3XX MAIN ST,300 MAIN ST,"300 MAIN ST , Vancouver, BC, Canada",49.2821303,-123.0994238,49.28243776,-123.0990044,1
199,Theft From Auto Under $5000,2007,1,14XX BEACH AVE,1400 BEACH AVE,"1400 BEACH AVE , Vancouver, BC, Canada",49.2815687,-123.1397601,49.28202104,-123.13939,1
200,Theft From Auto Under $5000,2007,1,13XX BLOCK E 16TH AVE,1300 BLOCK E 16TH AVE,"1300 BLOCK E 16TH AVE , Vancouver, BC, Canada",49.2561247,-123.0776027,49.25633061,-123.0773366,1
201,Theft From Auto Under $5000,2007,1,LAUREL ST / W BROADWAY AVE,LAUREL ST / W BROADWAY AVE,"LAUREL ST & W BROADWAY AVE , Vancouver, BC, Canada",49.26339,-123.12421,49.26358981,-123.1240164,1
202,Theft From Auto Under $5000,2007,1,BIDWELL ST / COMOX ST,BIDWELL ST / COMO0 ST,"BIDWELL ST & COMO0 ST , Vancouver, BC, Canada",49.28764,-123.13816,49.28804977,-123.1380365,1
203,Theft From Auto Under $5000,2007,1,36XX E PENDER ST,3600 E PENDER ST,"3600 E PENDER ST , Vancouver, BC, Canada",49.2801051,-123.0254793,49.28031532,-123.0251396,1
204,Theft From Auto Under $5000,2007,1,21XX W 39TH AVE,2100 W 39TH AVE,"2100 W 39TH AVE , Vancouver, BC, Canada",49.2363051,-123.1557612,49.2365342,-123.1552915,1
205,Theft From Auto Under $5000,2007,1,4XX SEYMOUR ST,400 SEYMOUR ST,"400 SEYMOUR ST , Vancouver, BC, Canada",49.2844743,-123.1129097,49.2848618,-123.1124437,1
206,Theft From Auto Under $5000,2007,1,GRANVILLE ST / PACIFIC ST,GRANVILLE ST / PACIFIC ST,"GRANVILLE ST & PACIFIC ST , Vancouver, BC, Canada",49.27506,-123.12941,49.27528246,-123.1291674,1
207,Theft From Auto Under $5000,2007,1,86XX FRENCH ST,8600 FRENCH ST,"8600 FRENCH ST , Vancouver, BC, Canada",49.2084236,-123.1389342,49.20881401,-123.1384343,1
208,Theft From Auto Under $5000,2007,1,24XX BLOCK RENFREW ST,2400 BLOCK RENFREW ST,"2400 BLOCK RENFREW ST , Vancouver, BC, Canada",49.2628392,-123.0441551,49.26313858,-123.0438495,1
209,Theft From Auto Under $5000,2007,1,28XX SPRUCE ST,2800 SPRUCE ST,"2800 SPRUCE ST , Vancouver, BC, Canada",49.2604609,-123.1289451,49.26069796,-123.1287936,1
210,Theft From Auto Under $5000,2007,1,8XX W 14TH AVE,800 W 14TH AVE,"800 W 14TH AVE , Vancouver, BC, Canada",49.2584952,-123.1222057,49.25877973,-123.1219217,1
212,Theft From Auto Under $5000,2007,1,10XX E 63RD AVE,1000 E 63RD AVE,"1000 E 63RD AVE , Vancouver, BC, Canada",49.2127651,-123.0854267,49.21318362,-123.0850202,1
213,Theft From Auto Under $5000,2007,1,CAMBIE ST / EXPO BLVD,CAMBIE ST / E0PO BLVD,"CAMBIE ST & E0PO BLVD , Vancouver, BC, Canada",49.27396,-123.11471,49.27422562,-123.1144661,1
214,Theft From Auto Under $5000,2007,1,8XX BLOCK RICHARDS ST,800 BLOCK RICHARDS ST,"800 BLOCK RICHARDS ST , Vancouver, BC, Canada",49.2798686,-123.1179346,49.28028698,-123.1175901,1
215,Theft From Auto Under $5000,2007,1,28XX SPRUCE ST,2800 SPRUCE ST,"2800 SPRUCE ST , Vancouver, BC, Canada",49.2604609,-123.1289451,49.26076412,-123.1287216,1
216,Theft From Auto Under $5000,2007,1,22XX TRINITY ST,2200 TRINITY ST,"2200 TRINITY ST , Vancouver, BC, Canada",49.2891834,-123.0590558,49.28930403,-123.0589452,1
217,Theft From Auto Under $5000,2007,1,8XX HAMILTON ST,800 HAMILTON ST,"800 HAMILTON ST , Vancouver, BC, Canada",49.2786005,-123.1160139,49.27870893,-123.1157831,1
218,Theft From Auto Under $5000,2007,1,19XX BARCLAY ST,1900 BARCLAY ST,"1900 BARCLAY ST , Vancouver, BC, Canada",49.2910659,-123.1393804,49.29125393,-123.1390687,1
219,Theft From Auto Under $5000,2007,1,58XX ALMA ST,5800 ALMA ST,"5800 ALMA ST , Vancouver, BC, Canada",49.2338185,-123.1866432,49.23412817,-123.1862523,1
220,Theft From Auto Under $5000,2007,1,7XX BLOCK W 6TH AVE,700 BLOCK W 6TH AVE,"700 BLOCK W 6TH AVE , Vancouver, BC, Canada",49.26563,-123.12014,49.26577219,-123.1198698,1
221,Theft From Auto Under $5000,2007,1,81XX MONTCALM ST,8100 MONTCALM ST,"8100 MONTCALM ST , Vancouver, BC, Canada",49.2122917,-123.1354651,49.2124527,-123.1351442,1
222,Theft From Auto Under $5000,2007,1,27XX CAMBRIDGE ST,2700 CAMBRIDGE ST,"2700 CAMBRIDGE ST , Vancouver, BC, Canada",49.2865951,-123.0490593,49.28703399,-123.048754,1
223,Theft From Auto Under $5000,2007,1,CYPRESS ST / W 3RD AVE,CYPRESS ST / W 3RD AVE,"CYPRESS ST & W 3RD AVE , Vancouver, BC, Canada",49.26891,-123.14789,49.26921476,-123.1475782,1
224,Theft From Auto Under $5000,2007,1,12XX W 14TH AVE,1200 W 14TH AVE,"1200 W 14TH AVE , Vancouver, BC, Canada",49.2586651,-123.1316834,49.25881159,-123.1312387,1
225,Theft From Auto Under $5000,2007,1,58XX ALMA ST,5800 ALMA ST,"5800 ALMA ST , Vancouver, BC, Canada",49.2338185,-123.1866432,49.23405254,-123.1863902,1
226,Theft From Auto Under $5000,2007,1,4XX ABBOTT ST,400 ABBOTT ST,"400 ABBOTT ST , Vancouver, BC, Canada",49.281775,-123.1070713,49.28206081,-123.1066506,1
227,Theft From Auto Under $5000,2007,1,9XX CHILCO ST,900 CHILCO ST,"900 CHILCO ST , Vancouver, BC, Canada",49.2923129,-123.139757,49.29268292,-123.1394333,1
228,Theft From Auto Under $5000,2007,1,2XX E GEORGIA ST,200 E GEORGIA ST,"200 E GEORGIA ST , Vancouver, BC, Canada",49.2783951,-123.0995238,49.27878826,-123.0990258,1
229,Theft From Auto Under $5000,2007,1,MAIN ST / E GEORGIA ST,MAIN ST / E GEORGIA ST,"MAIN ST & E GEORGIA ST , Vancouver, BC, Canada",49.27854,-123.09978,49.27902036,-123.0996682,1
230,Theft From Auto Under $5000,2007,1,24XX W 2ND AVE,2400 W 2ND AVE,"2400 W 2ND AVE , Vancouver, BC, Canada",49.2698751,-123.1600035,49.27033554,-123.1596862,1
231,Theft From Auto Under $5000,2007,1,14XX QUEBEC ST,1400 QUEBEC ST,"1400 QUEBEC ST , Vancouver, BC, Canada",49.2736051,-123.1019349,49.27380081,-123.1017243,1
232,Theft From Auto Under $5000,2007,1,CAMBIE ST / W CORDOVA ST,CAMBIE ST / W CORDOVA ST,"CAMBIE ST & W CORDOVA ST , Vancouver, BC, Canada",49.28352,-123.10913,49.28380698,-123.108766,1
233,Theft From Auto Under $5000,2007,1,CAMBIE ST / W GEORGIA ST,CAMBIE ST / W GEORGIA ST,"CAMBIE ST & W GEORGIA ST , Vancouver, BC, Canada",49.2793599,-123.11324,49.27985656,-123.1130459,1
234,Theft From Auto Under $5000,2007,1,CARRALL ST / E PENDER ST,CARRALL ST / E PENDER ST,"CARRALL ST & E PENDER ST , Vancouver, BC, Canada",49.28052,-123.10437,49.28073085,-123.1040761,1
235,Theft From Auto Under $5000,2007,1,7XX BLOCK PACIFIC BLVD,700 BLOCK PACIFIC BLVD,"700 BLOCK PACIFIC BLVD , Vancouver, BC, Canada",49.2767277,-123.108784,49.27689254,-123.1083503,1
236,Theft From Auto Under $5000,2007,1,49XX HEATHER ST,4900 HEATHER ST,"4900 HEATHER ST , Vancouver, BC, Canada",49.2410044,-123.1204339,49.2412003,-123.1203218,1
237,Theft From Auto Under $5000,2007,1,14XX QUEBEC ST,1400 QUEBEC ST,"1400 QUEBEC ST , Vancouver, BC, Canada",49.2736051,-123.1019349,49.27380761,-123.1016801,1
238,Theft From Auto Under $5000,2007,1,HELMCKEN ST / SEYMOUR ST,HELMCKEN ST / SEYMOUR ST,"HELMCKEN ST & SEYMOUR ST , Vancouver, BC, Canada",49.27758,-123.12363,49.27796502,-123.1233072,1
239,Theft From Auto Under $5000,2007,1,53XX CLARENDON ST,5300 CLARENDON ST,"5300 CLARENDON ST , Vancouver, BC, Canada",49.2364978,-123.0553351,49.2368205,-123.0550262,1
240,Theft From Auto Under $5000,2007,1,14XX W 12TH AVE,1400 W 12TH AVE,"1400 W 12TH AVE , Vancouver, BC, Canada",49.2606051,-123.1363803,49.26100499,-123.1361233,1
241,Theft From Auto Under $5000,2007,1,14XX BLOCK GRANVILLE ST,1400 BLOCK GRANVILLE ST,"1400 BLOCK GRANVILLE ST , Vancouver, BC, Canada",49.274692,-123.1295579,49.27496102,-123.1291492,1
242,Theft From Auto Under $5000,2007,1,W PENDER ST / CARRALL ST,W PENDER ST / CARRALL ST,"W PENDER ST & CARRALL ST , Vancouver, BC, Canada",49.28052,-123.10437,49.28075045,-123.103991,1
243,Theft From Auto Under $5000,2007,1,12XX W 14TH AVE,1200 W 14TH AVE,"1200 W 14TH AVE , Vancouver, BC, Canada",49.2586651,-123.1316834,49.2589155,-123.1314834,1
244,Theft From Auto Under $5000,2007,1,4XX CAMBIE ST,400 CAMBIE ST,"400 CAMBIE ST , Vancouver, BC, Canada",49.2824449,-123.1093962,49.28270185,-123.1092017,1
245,Theft From Auto Under $5000,2007,1,HOMER ST / PACIFIC ST,HOMER ST / PACIFIC ST,"HOMER ST & PACIFIC ST , Vancouver, BC, Canada",49.27315,-123.12588,49.27355181,-123.1254679,1
246,Theft From Auto Under $5000,2007,1,24XX SPRUCE ST,2400 SPRUCE ST,"2400 SPRUCE ST , Vancouver, BC, Canada",49.2642321,-123.1288351,49.26468172,-123.1283571,1
247,Theft From Auto Under $5000,2007,1,8XX W 8TH AVE,800 W 8TH AVE,"800 W 8TH AVE , Vancouver, BC, Canada",49.2641051,-123.1219601,49.26423915,-123.1218476,1
248,Theft From Auto Under $5000,2007,1,1XX WATER ST,100 WATER ST,"100 WATER ST , Vancouver, BC, Canada",49.2837861,-123.1065744,49.28418695,-123.106302,1
249,Theft From Auto Under $5000,2007,1,2XX W 16TH AVE,200 W 16TH AVE,"200 W 16TH AVE , Vancouver, BC, Canada",49.2566152,-123.1099069,49.25704664,-123.1097239,1
250,Theft From Auto Under $5000,2007,1,46XX VALLEY DR,4600 VALLEY DR,"4600 VALLEY DR , Vancouver, BC, Canada",49.2455169,-123.1546823,49.24598118,-123.1545737,1
251,Theft From Auto Under $5000,2007,1,30XX KINGSWAY AVE,3000 KINGSWAY AVE,"3000 KINGSWAY AVE , Vancouver, BC, Canada",49.2357833,-123.0421559,49.23614098,-123.041992,1
252,Theft From Auto Under $5000,2007,1,7XX BLOCK W 6TH AVE,700 BLOCK W 6TH AVE,"700 BLOCK W 6TH AVE , Vancouver, BC, Canada",49.26563,-123.12014,49.26581078,-123.1200158,1
253,Theft From Auto Under $5000,2007,1,5XX BLOCK BEACH CRES,500 BLOCK BEACH CRES,"500 BLOCK BEACH CRES , Vancouver, BC, Canada",49.2731058,-123.1285713,49.27329858,-123.128398,1
254,Theft From Auto Under $5000,2007,1,36XX RAE AVE,3600 RAE AVE,"3600 RAE AVE , Vancouver, BC, Canada",49.2367593,-123.0253556,49.23720742,-123.0249139,1
255,Theft From Auto Under $5000,2007,1,1XX BLOCK E CORDOVA ST,100 BLOCK E CORDOVA ST,"100 BLOCK E CORDOVA ST , Vancouver, BC, Canada",49.28207,-123.10198,49.28247183,-123.1015173,1
256,Theft From Auto Under $5000,2007,1,16XX BARCLAY ST,1600 BARCLAY ST,"1600 BARCLAY ST , Vancouver, BC, Canada",49.2880061,-123.1346614,49.28838317,-123.1343737,1
257,Theft From Auto Under $5000,2007,1,24XX BLOCK SPRUCE ST,2400 BLOCK SPRUCE ST,"2400 BLOCK SPRUCE ST , Vancouver, BC, Canada",49.2642321,-123.1288351,49.26455189,-123.128482,1
258,Theft From Auto Under $5000,2007,1,7XX W 7TH AVE,700 W 7TH AVE,"700 W 7TH AVE , Vancouver, BC, Canada",49.2649151,-123.1200235,49.26527393,-123.1197818,1
259,Theft From Auto Under $5000,2007,1,FRANKLIN ST / WOODLAND DR,FRANKLIN ST / WOODLAND DR,"FRANKLIN ST & WOODLAND DR , Vancouver, BC, Canada",49.28224,-123.07257,49.28248696,-123.072364,1
260,Theft From Auto Under $5000,2007,1,CAMBIE ST / W CORDOVA ST,CAMBIE ST / W CORDOVA ST,"CAMBIE ST & W CORDOVA ST , Vancouver, BC, Canada",49.28352,-123.10913,49.28368607,-123.109013,1
261,Theft From Auto Under $5000,2007,1,HOWE ST / W CORDOVA ST,HOWE ST / W CORDOVA ST,"HOWE ST & W CORDOVA ST , Vancouver, BC, Canada",49.28661,-123.11385,49.28678012,-123.113477,1
262,Theft From Auto Under $5000,2007,1,12XX ROBSON ST,1200 ROBSON ST,"1200 ROBSON ST , Vancouver, BC, Canada",49.2859863,-123.1272122,49.28626344,-123.1269407,1
264,Theft From Auto Under $5000,2007,1,1XX W PENDER ST,100 W PENDER ST,"100 W PENDER ST , Vancouver, BC, Canada",49.28096,-123.10846,49.28126943,-123.108304,1
265,Theft From Auto Under $5000,2007,1,25XX E HASTINGS ST,2500 E HASTINGS ST,"2500 E HASTINGS ST , Vancouver, BC, Canada",49.2810051,-123.0543193,49.28121322,-123.0539512,1
266,Theft From Auto Under $5000,2007,1,RICHARDS ST / W HASTINGS ST,RICHARDS ST / W HASTINGS ST,"RICHARDS ST & W HASTINGS ST , Vancouver, BC, Canada",49.28404,-123.11187,49.28441576,-123.1114958,1
267,Theft From Auto Under $5000,2007,1,12XX W 14TH AVE,1200 W 14TH AVE,"1200 W 14TH AVE , Vancouver, BC, Canada",49.2586651,-123.1316834,49.2588224,-123.131497,1
268,Theft From Auto Under $5000,2007,1,36XX VANNESS AVE,3600 VANNESS AVE,"3600 VANNESS AVE , Vancouver, BC, Canada",49.2361149,-123.027638,49.23640235,-123.0274672,1
269,Theft From Auto Under $5000,2007,1,5XX BLOCK BEATTY ST,500 BLOCK BEATTY ST,"500 BLOCK BEATTY ST , Vancouver, BC, Canada",49.2810072,-123.1084969,49.28137579,-123.1082259,1
270,Theft From Auto Under $5000,2007,1,CAMBIE ST / W CORDOVA ST,CAMBIE ST / W CORDOVA ST,"CAMBIE ST & W CORDOVA ST , Vancouver, BC, Canada",49.28352,-123.10913,49.28364482,-123.1088432,1
271,Theft From Auto Under $5000,2007,1,85XX BLOCK MONTCALM ST,8500 BLOCK MONTCALM ST,"8500 BLOCK MONTCALM ST , Vancouver, BC, Canada",49.2094896,-123.1354816,49.2096738,-123.135043,1
272,Theft From Auto Under $5000,2007,1,76XX BLOCK HEATHER ST,7600 BLOCK HEATHER ST,"7600 BLOCK HEATHER ST , Vancouver, BC, Canada",49.2159297,-123.1236943,49.21640234,-123.1232518,1
273,Theft From Auto Under $5000,2007,1,86XX MONTCALM ST,8600 MONTCALM ST,"8600 MONTCALM ST , Vancouver, BC, Canada",49.208386,-123.1359641,49.20860443,-123.13583,1
274,Theft From Auto Under $5000,2007,1,20XX BARCLAY ST,2000 BARCLAY ST,"2000 BARCLAY ST , Vancouver, BC, Canada",49.2919573,-123.1407652,49.29230677,-123.1404527,1
275,Theft From Auto Under $5000,2007,1,20XX BLOCK NELSON ST,2000 BLOCK NELSON ST,"2000 BLOCK NELSON ST , Vancouver, BC, Canada",49.2912558,-123.14181,49.29139137,-123.1414164,1
276,Theft From Auto Under $5000,2007,1,12XX HORNBY ST,1200 HORNBY ST,"1200 HORNBY ST , Vancouver, BC, Canada",49.27808,-123.12824,49.27838557,-123.128022,1
277,Theft From Auto Under $5000,2007,1,5XX BLOCK RICHARDS ST,500 BLOCK RICHARDS ST,"500 BLOCK RICHARDS ST , Vancouver, BC, Canada",49.2831573,-123.1129627,49.28362862,-123.1126453,1
278,Theft From Auto Under $5000,2007,1,18XX W 8TH AVE,1800 W 8TH AVE,"1800 W 8TH AVE , Vancouver, BC, Canada",49.2644951,-123.1459442,49.2646545,-123.1456651,1
279,Theft From Auto Under $5000,2007,1,6XX W 7TH AVE,600 W 7TH AVE,"600 W 7TH AVE , Vancouver, BC, Canada",49.2648751,-123.1176327,49.26530262,-123.1173671,1
280,Theft From Auto Under $5000,2007,1,22XX BLOCK WALL ST,2200 BLOCK WALL ST,"2200 BLOCK WALL ST , Vancouver, BC, Canada",49.2885071,-123.0597166,49.28889916,-123.059262,1
281,Theft From Auto Under $5000,2007,1,13XX HORNBY ST,1300 HORNBY ST,"1300 HORNBY ST , Vancouver, BC, Canada",49.2771097,-123.1298628,49.2775185,-123.1297511,1
282,Theft From Auto Under $5000,2007,1,34XX BLOCK QUEBEC ST,3400 BLOCK QUEBEC ST,"3400 BLOCK QUEBEC ST , Vancouver, BC, Canada",49.2545222,-123.1025842,49.25496302,-123.1022309,1
283,Theft From Auto Under $5000,2007,1,4XX BLOCK HOMER ST,400 BLOCK HOMER ST,"400 BLOCK HOMER ST , Vancouver, BC, Canada",49.2831726,-123.1109719,49.28339984,-123.1106922,1
284,Theft From Auto Under $5000,2007,1,15XX W 13TH AVE,1500 W 13TH AVE,"1500 W 13TH AVE , Vancouver, BC, Canada",49.2597351,-123.1389102,49.26021726,-123.1387677,1
285,Theft From Auto Under $5000,2007,1,6XX BLOCK CARRALL ST,600 BLOCK CARRALL ST,"600 BLOCK CARRALL ST , Vancouver, BC, Canada",49.2789971,-123.104363,49.27931197,-123.1042236,1
286,Theft From Auto Under $5000,2007,1,1XX KEEFER ST,100 KEEFER ST,"100 KEEFER ST , Vancouver, BC, Canada",49.279187,-123.1019665,49.27952854,-123.1015977,1
287,Theft From Auto Under $5000,2007,1,19XX E HASTINGS ST,1900 E HASTINGS ST,"1900 E HASTINGS ST , Vancouver, BC, Canada",49.2810451,-123.0653694,49.28127526,-123.0648861,1
288,Theft From Auto Under $5000,2007,1,75XX BLOCK OSLER ST,7500 BLOCK OSLER ST,"7500 BLOCK OSLER ST , Vancouver, BC, Canada",49.2170367,-123.1312051,49.21719328,-123.1308104,1
289,Theft From Auto Under $5000,2007,1,ELLIOTT ST / E 49TH AVE,ELLIOTT ST / E 49TH AVE,"ELLIOTT ST & E 49TH AVE , Vancouver, BC, Canada",49.22482,-123.05477,49.22498472,-123.0545075,1
290,Theft From Auto Under $5000,2007,1,32XX BLOCK W 6TH AVE,3200 BLOCK W 6TH AVE,"3200 BLOCK W 6TH AVE , Vancouver, BC, Canada",49.2666151,-123.1760142,49.2669533,-123.1756035,1
291,Theft From Auto Under $5000,2007,1,E PENDER ST / MCLEAN DR,E PENDER ST / MCLEAN DR,"E PENDER ST & MCLEAN DR , Vancouver, BC, Canada",49.28038,-123.0741,49.28067009,-123.0739141,1
292,Theft From Auto Under $5000,2007,1,12XX BLOCK JERVIS ST,1200 BLOCK JERVIS ST,"1200 BLOCK JERVIS ST , Vancouver, BC, Canada",49.282567,-123.1349925,49.28286596,-123.1346146,1
293,Theft From Auto Under $5000,2007,1,3XX SE MARINE DR,300 SE MARINE DR,"300 SE MARINE DR , Vancouver, BC, Canada",49.2106241,-123.1002723,49.21075637,-123.0999963,1
294,Theft From Auto Under $5000,2007,1,4XX E 44TH AVE,400 E 44TH AVE,"400 E 44TH AVE , Vancouver, BC, Canada",49.2300745,-123.097061,49.23021004,-123.0968238,1
295,Theft From Auto Under $5000,2007,1,17XX BLOCK W BROADWAY AVE,1700 BLOCK W BROADWAY AVE,"1700 BLOCK W BROADWAY AVE , Vancouver, BC, Canada",49.2635551,-123.1436516,49.26381896,-123.1432209,1
296,Theft From Auto Under $5000,2007,1,12XX ROBSON ST,1200 ROBSON ST,"1200 ROBSON ST , Vancouver, BC, Canada",49.2859863,-123.1272122,49.28608688,-123.1268202,1
297,Theft From Auto Under $5000,2007,1,KINGSWAY AVE / MCHARDY ST,KINGSWAY AVE / MCHARDY ST,"KINGSWAY AVE & MCHARDY ST , Vancouver, BC, Canada",49.24223,-123.0321,49.24245413,-123.0318479,1
298,Theft From Auto Under $5000,2007,1,18XX W 5TH AVE,1800 W 5TH AVE,"1800 W 5TH AVE , Vancouver, BC, Canada",49.26692,-123.1459,49.26706423,-123.1455042,1
299,Theft From Auto Under $5000,2007,1,7XX W GEORGIA ST,700 W GEORGIA ST,"700 W GEORGIA ST , Vancouver, BC, Canada",49.28276,-123.11871,49.28309259,-123.1183013,1
300,Theft From Auto Under $5000,2007,1,17XX W 5TH AVE,1700 W 5TH AVE,"1700 W 5TH AVE , Vancouver, BC, Canada",49.2669751,-123.143454,49.26715495,-123.143267,1
301,Theft From Auto Under $5000,2007,1,BURRARD ST / W 5TH AVE,BURRARD ST / W 5TH AVE,"BURRARD ST & W 5TH AVE , Vancouver, BC, Canada",49.26717,-123.14568,49.26758294,-123.1451885,1
302,Theft From Auto Under $5000,2007,1,1XX E 2ND AVE,100 E 2ND AVE,"100 E 2ND AVE , Vancouver, BC, Canada",49.2690851,-123.1024904,49.2694024,-123.1022316,1
303,Theft From Auto Under $5000,2007,1,20XX W 12TH AVE,2000 W 12TH AVE,"2000 W 12TH AVE , Vancouver, BC, Canada",49.26068,-123.15104,49.26112902,-123.1506202,1
304,Theft From Auto Under $5000,2007,1,19XX TRIUMPH ST,1900 TRIUMPH ST,"1900 TRIUMPH ST , Vancouver, BC, Canada",49.2838351,-123.0652494,49.28398158,-123.0648444,1
305,Theft From Auto Under $5000,2007,1,DUNSMUIR ST / SEYMOUR ST,DUNSMUIR ST / SEYMOUR ST,"DUNSMUIR ST & SEYMOUR ST , Vancouver, BC, Canada",49.28297,-123.11547,49.28327717,-123.1149848,1
306,Theft From Auto Under $5000,2007,1,14XX WALNUT ST,1400 WALNUT ST,"1400 WALNUT ST , Vancouver, BC, Canada",49.2729552,-123.1486974,49.27334051,-123.1483794,1
307,Theft From Auto Under $5000,2007,1,CARRALL ST / PACIFIC BLVD,CARRALL ST / PACIFIC BLVD,"CARRALL ST & PACIFIC BLVD , Vancouver, BC, Canada",49.2771199,-123.10637,49.27761888,-123.1061616,1
308,Theft From Auto Under $5000,2007,1,RICHARDS ST / W GEORGIA ST,RICHARDS ST / W GEORGIA ST,"RICHARDS ST & W GEORGIA ST , Vancouver, BC, Canada",49.2812399,-123.11614,49.28140797,-123.1159644,1
309,Theft From Auto Under $5000,2007,1,11XX HOMER ST,1100 HOMER ST,"1100 HOMER ST , Vancouver, BC, Canada",49.2761714,-123.1216119,49.27627734,-123.1211971,1
310,Theft From Auto Under $5000,2007,1,W 20TH AVE / BLENHEIM ST,W 20TH AVE / BLENHEIM ST,"W 20TH AVE & BLENHEIM ST , Vancouver, BC, Canada",49.25465,-123.17855,49.25489926,-123.1781125,1
311,Theft From Auto Under $5000,2007,1,19XX GRAVELEY ST,1900 GRAVELEY ST,"1900 GRAVELEY ST , Vancouver, BC, Canada",49.2703251,-123.0657167,49.27052398,-123.0654825,1
312,Theft From Auto Under $5000,2007,1,16XX BAYSHORE DR,1600 BAYSHORE DR,"1600 BAYSHORE DR , Vancouver, BC, Canada",49.2913563,-123.1295725,49.29148418,-123.1291822,1
313,Theft From Auto Under $5000,2007,1,10XX W PENDER ST,1000 W PENDER ST,"1000 W PENDER ST , Vancouver, BC, Canada",49.2865378,-123.1180675,49.28689858,-123.1178415,1
314,Theft From Auto Under $5000,2007,1,22XX PORTSIDE CRT,2200 PORTSIDE CRT,"2200 PORTSIDE CRT , Vancouver, BC, Canada",49.20722,-123.06242,49.20749072,-123.0623041,1
315,Theft From Auto Under $5000,2007,1,7XX E 57TH AVE,700 E 57TH AVE,"700 E 57TH AVE , Vancouver, BC, Canada",49.2180851,-123.0907199,49.21849469,-123.0902328,1
316,Theft From Auto Under $5000,2007,1,8XX BLOCK BROUGHTON ST,800 BLOCK BROUGHTON ST,"800 BLOCK BROUGHTON ST , Vancouver, BC, Canada",49.2876825,-123.130007,49.28783963,-123.1295825,1
317,Theft From Auto Under $5000,2007,1,JERVIS ST / ROBSON ST,JERVIS ST / ROBSON ST,"JERVIS ST & ROBSON ST , Vancouver, BC, Canada",49.28704,-123.12855,49.28734682,-123.128091,1
318,Theft From Auto Under $5000,2007,1,12XX ROBSON ST,1200 ROBSON ST,"1200 ROBSON ST , Vancouver, BC, Canada",49.2859863,-123.1272122,49.28637753,-123.126842,1
319,Theft From Auto Under $5000,2007,1,ALBERTA ST / W 49TH AVE,ALBERTA ST / W 49TH AVE,"ALBERTA ST & W 49TH AVE , Vancouver, BC, Canada",49.22598,-123.11295,49.22619418,-123.1125507,1
320,Theft From Auto Under $5000,2007,1,30XX E KENT AVE S,3000 E KENT AVE S,"3000 E KENT AVE S , Vancouver, BC, Canada",49.2062639,-123.0452008,49.20659496,-123.0447578,1
321,Theft From Auto Under $5000,2007,1,12XX CLARK DR,1200 CLARK DR,"1200 CLARK DR , Vancouver, BC, Canada",49.2739241,-123.0770735,49.27424705,-123.0767782,1
322,Theft From Auto Under $5000,2007,1,BURRARD ST / HELMCKEN ST,BURRARD ST / HELMCKEN ST,"BURRARD ST & HELMCKEN ST , Vancouver, BC, Canada",49.28009,-123.12757,49.28058838,-123.1271869,1
323,Theft From Auto Under $5000,2007,1,7XX BLOCK E 60TH AVE,700 BLOCK E 60TH AVE,"700 BLOCK E 60TH AVE , Vancouver, BC, Canada",49.2154851,-123.09079,49.2157065,-123.0906879,1
324,Theft From Auto Under $5000,2007,1,35XX E 26TH AVE,3500 E 26TH AVE,"3500 E 26TH AVE , Vancouver, BC, Canada",49.2469132,-123.0282815,49.24728011,-123.0281756,1
325,Theft From Auto Under $5000,2007,1,1XX NATIONAL AVE,100 NATIONAL AVE,"100 NATIONAL AVE , Vancouver, BC, Canada",49.2747751,-123.1016311,49.27498476,-123.101457,1
326,Theft From Auto Under $5000,2007,1,65XX BLENHEIM ST,6500 BLENHEIM ST,"6500 BLENHEIM ST , Vancouver, BC, Canada",49.2272967,-123.1785541,49.22769263,-123.1782504,1
327,Theft From Auto Under $5000,2007,1,54XX DUNDEE ST,5400 DUNDEE ST,"5400 DUNDEE ST , Vancouver, BC, Canada",49.236201,-123.0474048,49.2363872,-123.0470516,1
328,Theft From Auto Under $5000,2007,1,4XX SEYMOUR ST,400 SEYMOUR ST,"400 SEYMOUR ST , Vancouver, BC, Canada",49.2844743,-123.1129097,49.28491635,-123.1125533,1
329,Theft From Auto Under $5000,2007,1,BURRARD ST / CORNWALL AVE,BURRARD ST / CORNWALL AVE,"BURRARD ST & CORNWALL AVE , Vancouver, BC, Canada",49.27256,-123.14535,49.27297673,-123.1449948,1
330,Theft From Auto Under $5000,2007,1,24XX VICTORIA DR,2400 VICTORIA DR,"2400 VICTORIA DR , Vancouver, BC, Canada",49.2631133,-123.0657651,49.26334386,-123.0654782,1
331,Theft From Auto Under $5000,2007,1,19XX NAPIER ST,1900 NAPIER ST,"1900 NAPIER ST , Vancouver, BC, Canada",49.2747151,-123.0654341,49.27487464,-123.0652477,1
332,Theft From Auto Under $5000,2007,1,KINGSWAY AVE / TAUNTON ST,KINGSWAY AVE / TAUNTON ST,"KINGSWAY AVE & TAUNTON ST , Vancouver, BC, Canada",49.2367599,-123.03837,49.23707006,-123.038246,1
333,Theft From Auto Under $5000,2007,1,GRANVILLE ST / W CORDOVA ST,GRANVILLE ST / W CORDOVA ST,"GRANVILLE ST & W CORDOVA ST , Vancouver, BC, Canada",49.286,-123.11284,49.28623947,-123.1126418,1
334,Theft From Auto Under $5000,2007,1,58XX BLOCK BATTISON ST,5800 BLOCK BATTISON ST,"5800 BLOCK BATTISON ST , Vancouver, BC, Canada",49.2313105,-123.0304453,49.23178175,-123.0300146,1
335,Theft From Auto Under $5000,2007,1,30XX E KENT AVE S,3000 E KENT AVE S,"3000 E KENT AVE S , Vancouver, BC, Canada",49.2062639,-123.0452008,49.20663349,-123.0450269,1
336,Theft From Auto Under $5000,2007,1,18XX NELSON ST,1800 NELSON ST,"1800 NELSON ST , Vancouver, BC, Canada",49.289326,-123.1388808,49.28962285,-123.1385317,1
337,Theft From Auto Under $5000,2007,1,55XX NANAIMO ST,5500 NANAIMO ST,"5500 NANAIMO ST , Vancouver, BC, Canada",49.2346994,-123.0586451,49.235191,-123.0581454,1
338,Theft From Auto Under $5000,2007,1,16XX BLOCK BAYSHORE DR,1600 BLOCK BAYSHORE DR,"1600 BLOCK BAYSHORE DR , Vancouver, BC, Canada",49.2913563,-123.1295725,49.29150979,-123.1293168,1
339,Theft From Auto Under $5000,2007,1,4XX HELMCKEN ST,400 HELMCKEN ST,"400 HELMCKEN ST , Vancouver, BC, Canada",49.276277,-123.1218946,49.27676049,-123.1217681,1
340,Theft From Auto Under $5000,2007,1,14XX W 73RD AVE,1400 W 73RD AVE,"1400 W 73RD AVE , Vancouver, BC, Canada",49.2050188,-123.1380571,49.20511895,-123.1378069,1
341,Theft From Auto Under $5000,2007,1,5XX ABBOTT ST,500 ABBOTT ST,"500 ABBOTT ST , Vancouver, BC, Canada",49.2808563,-123.1074417,49.28117294,-123.1073268,1
342,Theft From Auto Under $5000,2007,1,35XX E 28TH AVE,3500 E 28TH AVE,"3500 E 28TH AVE , Vancouver, BC, Canada",49.2452451,-123.0283046,49.24553326,-123.0280071,1
343,Theft From Auto Under $5000,2007,1,8XX W 68TH AVE,800 W 68TH AVE,"800 W 68TH AVE , Vancouver, BC, Canada",49.2097951,-123.1243525,49.21002778,-123.1241611,1
344,Theft From Auto Under $5000,2007,1,E HASTINGS ST / RENFREW ST,E HASTINGS ST / RENFREW ST,"E HASTINGS ST & RENFREW ST , Vancouver, BC, Canada",49.28113,-123.04406,49.28154864,-123.0435636,1
345,Theft From Auto Under $5000,2007,1,14XX WALNUT ST,1400 WALNUT ST,"1400 WALNUT ST , Vancouver, BC, Canada",49.2729552,-123.1486974,49.27333355,-123.1482262,1
346,Theft From Auto Under $5000,2007,1,85XX AQUITANIA PL,8500 AQUITANIA PL,"8500 AQUITANIA PL , Vancouver, BC, Canada",49.2063578,-123.0436151,49.20663818,-123.0432833,1
347,Theft From Auto Under $5000,2007,1,14XX WALNUT ST,1400 WALNUT ST,"1400 WALNUT ST , Vancouver, BC, Canada",49.2729552,-123.1486974,49.2731874,-123.1483108,1
348,Theft From Auto Under $5000,2007,1,30XX E KENT AVE S,3000 E KENT AVE S,"3000 E KENT AVE S , Vancouver, BC, Canada",49.2062639,-123.0452008,49.20659365,-123.0450546,1
349,Theft From Auto Under $5000,2007,1,8XX BLOCK E PENDER ST,800 BLOCK E PENDER ST,"800 BLOCK E PENDER ST , Vancouver, BC, Canada",49.2800051,-123.0869108,49.28041059,-123.0866256,1
350,Theft From Auto Under $5000,2007,1,88XX HEATHER ST,8800 HEATHER ST,"8800 HEATHER ST , Vancouver, BC, Canada",49.2058981,-123.1230652,49.20633476,-123.1226107,1
351,Theft From Auto Under $5000,2007,1,6XX E 16TH AVE,600 E 16TH AVE,"600 E 16TH AVE , Vancouver, BC, Canada",49.2563151,-123.0916294,49.25646715,-123.0911632,1
352,Theft From Auto Under $5000,2007,1,17XX W 12TH AVE,1700 W 12TH AVE,"1700 W 12TH AVE , Vancouver, BC, Canada",49.2607251,-123.1436827,49.26109822,-123.1433641,1
353,Theft From Auto Under $5000,2007,1,14XX W 14TH AVE,1400 W 14TH AVE,"1400 W 14TH AVE , Vancouver, BC, Canada",49.2587451,-123.1364535,49.2588987,-123.1362721,1
354,Theft From Auto Under $5000,2007,1,31XX CAMBIE ST,3100 CAMBIE ST,"3100 CAMBIE ST , Vancouver, BC, Canada",49.2577115,-123.1149251,49.25793454,-123.1146908,1
355,Theft From Auto Under $5000,2007,1,12XX LAMEYS MILL RD,1200 LAMEYS MILL RD,"1200 LAMEYS MILL RD , Vancouver, BC, Canada",49.2665273,-123.132167,49.26701223,-123.132045,1
356,Theft From Auto Under $5000,2007,1,49XX MCGEER ST,4900 MCGEER ST,"4900 MCGEER ST , Vancouver, BC, Canada",49.2405995,-123.0320446,49.2410286,-123.0319443,1
357,Theft From Auto Under $5000,2007,1,4XX ROBSON ST,400 ROBSON ST,"400 ROBSON ST , Vancouver, BC, Canada",49.2794265,-123.1170928,49.27962764,-123.1167819,1
358,Theft From Auto Under $5000,2007,1,4XX ROBSON ST,400 ROBSON ST,"400 ROBSON ST , Vancouver, BC, Canada",49.2794265,-123.1170928,49.27954753,-123.1168717,1
359,Theft From Auto Under $5000,2007,1,4XX ROBSON ST,400 ROBSON ST,"400 ROBSON ST , Vancouver, BC, Canada",49.2794265,-123.1170928,49.27975533,-123.116954,1
360,Theft From Auto Under $5000,2007,1,16XX BAYSHORE DR,1600 BAYSHORE DR,"1600 BAYSHORE DR , Vancouver, BC, Canada",49.2913563,-123.1295725,49.29146451,-123.1291413,1
361,Theft From Auto Under $5000,2007,1,11XX BLOCK SEYMOUR ST,1100 BLOCK SEYMOUR ST,"1100 BLOCK SEYMOUR ST , Vancouver, BC, Canada",49.2773487,-123.123703,49.27772527,-123.1232267,1
362,Theft From Auto Under $5000,2007,1,1XX WATER ST,100 WATER ST,"100 WATER ST , Vancouver, BC, Canada",49.2837861,-123.1065744,49.28389977,-123.1064332,1
363,Theft From Auto Under $5000,2007,1,E 3RD AVE / ONTARIO ST,E 3RD AVE / ONTARIO ST,"E 3RD AVE & ONTARIO ST , Vancouver, BC, Canada",49.26831,-123.1047,49.26845015,-123.1043074,1
364,Theft From Auto Under $5000,2007,1,29XX BLOCK SCHOOL AVE,2900 BLOCK SCHOOL AVE,"2900 BLOCK SCHOOL AVE , Vancouver, BC, Canada",49.2358093,-123.0443739,49.23607245,-123.0441428,1
365,Theft From Auto Under $5000,2007,1,29XX BLOCK SCHOOL AVE,2900 BLOCK SCHOOL AVE,"2900 BLOCK SCHOOL AVE , Vancouver, BC, Canada",49.2358093,-123.0443739,49.23604911,-123.044212,1
366,Theft From Auto Under $5000,2007,1,29XX BLOCK SCHOOL AVE,2900 BLOCK SCHOOL AVE,"2900 BLOCK SCHOOL AVE , Vancouver, BC, Canada",49.2358093,-123.0443739,49.23623508,-123.0440088,1
367,Theft From Auto Under $5000,2007,1,16XX NAPIER ST,1600 NAPIER ST,"1600 NAPIER ST , Vancouver, BC, Canada",49.2747251,-123.0699693,49.27502395,-123.0694938,1
368,Theft From Auto Under $5000,2007,1,CHESTER ST / SE MARINE DR,CHESTER ST / SE MARINE DR,"CHESTER ST & SE MARINE DR , Vancouver, BC, Canada",49.2110399,-123.08957,49.21140524,-123.089346,1
369,Theft From Auto Under $5000,2007,1,BUTE ST / ROBSON ST,BUTE ST / ROBSON ST,"BUTE ST & ROBSON ST , Vancouver, BC, Canada",49.28602,-123.12699,49.2864049,-123.1266893,1
370,Theft From Auto Under $5000,2007,1,15XX HARO ST,1500 HARO ST,"1500 HARO ST , Vancouver, BC, Canada",49.28799,-123.13291,49.28813297,-123.1326343,1
371,Theft From Auto Under $5000,2007,1,E BROADWAY AVE / MAIN ST,E BROADWAY AVE / MAIN ST,"E BROADWAY AVE & MAIN ST , Vancouver, BC, Canada",49.26292,-123.10097,49.26340867,-123.1005368,1
372,Theft From Auto Under $5000,2007,1,9XX COMMERCIAL DR,900 COMMERCIAL DR,"900 COMMERCIAL DR , Vancouver, BC, Canada",49.276516,-123.0693651,49.27669647,-123.0688847,1
373,Theft From Auto Under $5000,2007,1,COMMODORE RD / SPYGLASS PL,COMMODORE RD / SPYGLASS PL,"COMMODORE RD & SPYGLASS PL , Vancouver, BC, Canada",49.26793,-123.11535,49.26814578,-123.1149371,1
374,Theft From Auto Under $5000,2007,1,12XX LAMEYS MILL RD,1200 LAMEYS MILL RD,"1200 LAMEYS MILL RD , Vancouver, BC, Canada",49.2665273,-123.132167,49.26687939,-123.1319087,1
375,Theft From Auto Under $5000,2007,1,12XX LAMEYS MILL RD,1200 LAMEYS MILL RD,"1200 LAMEYS MILL RD , Vancouver, BC, Canada",49.2665273,-123.132167,49.26663527,-123.1316882,1
376,Theft From Auto Under $5000,2007,1,12XX LAMEYS MILL RD,1200 LAMEYS MILL RD,"1200 LAMEYS MILL RD , Vancouver, BC, Canada",49.2665273,-123.132167,49.26664531,-123.1316935,1
377,Theft From Auto Under $5000,2007,1,30XX E KENT AVE S,3000 E KENT AVE S,"3000 E KENT AVE S , Vancouver, BC, Canada",49.2062639,-123.0452008,49.20640398,-123.0450689,1
378,Theft From Auto Under $5000,2007,1,12XX LAMEYS MILL RD,1200 LAMEYS MILL RD,"1200 LAMEYS MILL RD , Vancouver, BC, Canada",49.2665273,-123.132167,49.26687047,-123.1318628,1
379,Theft From Auto Under $5000,2007,1,2XX E 4TH AVE,200 E 4TH AVE,"200 E 4TH AVE , Vancouver, BC, Canada",49.2672051,-123.1005598,49.26750566,-123.1002881,1
380,Theft From Auto Under $5000,2007,1,12XX LAMEYS MILL RD,1200 LAMEYS MILL RD,"1200 LAMEYS MILL RD , Vancouver, BC, Canada",49.2665273,-123.132167,49.26693315,-123.1318168,1
381,Theft From Auto Under $5000,2007,1,MAIN ST / UNION ST,MAIN ST / UNION ST,"MAIN ST & UNION ST , Vancouver, BC, Canada",49.27769,-123.09981,49.27808452,-123.099495,1
382,Theft From Auto Under $5000,2007,1,12XX LAMEYS MILL RD,1200 LAMEYS MILL RD,"1200 LAMEYS MILL RD , Vancouver, BC, Canada",49.2665273,-123.132167,49.26682331,-123.1320598,1
383,Theft From Auto Under $5000,2007,1,23XX BLOCK PRINCE ALBERT ST,2300 BLOCK PRINCE ALBERT ST,"2300 BLOCK PRINCE ALBERT ST , Vancouver, BC, Canada",49.2642023,-123.0870151,49.26459274,-123.0866705,1
384,Theft From Auto Under $5000,2007,1,1XX E 10TH AVE,100 E 10TH AVE,"100 E 10TH AVE , Vancouver, BC, Canada",49.2619348,-123.1027574,49.26220177,-123.1022845,1
385,Theft From Auto Under $5000,2007,1,6XX ROBSON ST,600 ROBSON ST,"600 ROBSON ST , Vancouver, BC, Canada",49.2807,-123.11942,49.28109034,-123.1191292,1
386,Theft From Auto Under $5000,2007,1,MACDONALD ST / W 4TH AVE,MACDONALD ST / W 4TH AVE,"MACDONALD ST & W 4TH AVE , Vancouver, BC, Canada",49.26837,-123.16832,49.26876837,-123.1679237,1
387,Theft From Auto Under $5000,2007,1,1XX W PENDER ST,100 W PENDER ST,"100 W PENDER ST , Vancouver, BC, Canada",49.28096,-123.10846,49.28121746,-123.108044,1
388,Theft From Auto Under $5000,2007,1,8XX DENMAN ST,800 DENMAN ST,"800 DENMAN ST , Vancouver, BC, Canada",49.2912403,-123.1355415,49.29136386,-123.1352158,1
389,Theft From Auto Under $5000,2007,1,25XX E BROADWAY AVE,2500 E BROADWAY AVE,"2500 E BROADWAY AVE , Vancouver, BC, Canada",49.2618751,-123.0544295,49.26216498,-123.0539942,1
390,Theft From Auto Under $5000,2007,1,GRANT ST / WINDERMERE ST,GRANT ST / WINDERMERE ST,"GRANT ST & WINDERMERE ST , Vancouver, BC, Canada",49.27136,-123.03639,49.27184181,-123.0362555,1
391,Theft From Auto Under $5000,2007,1,ALMA ST / W 14TH AVE,ALMA ST / W 14TH AVE,"ALMA ST & W 14TH AVE , Vancouver, BC, Canada",49.25983,-123.18601,49.25999535,-123.1857529,1
392,Theft From Auto Under $5000,2007,1,PRINCE EDWARD ST / SE MARINE DR,PRINCE EDWARD ST / SE MARINE DR,"PRINCE EDWARD ST & SE MARINE DR , Vancouver, BC, Canada",49.21088,-123.09798,49.2112215,-123.0975041,1
393,Theft From Auto Under $5000,2007,1,13XX W GEORGIA ST,1300 W GEORGIA ST,"1300 W GEORGIA ST , Vancouver, BC, Canada",49.2879967,-123.1269638,49.28821176,-123.1265555,1
394,Theft From Auto Under $5000,2007,1,12XX ISLAND PARK WALK,1200 ISLAND PARK WALK,"1200 ISLAND PARK WALK , Vancouver, BC, Canada",49.2672,-123.13277,49.26762885,-123.1326409,1
395,Theft From Auto Under $5000,2007,1,MAIN ST / E 7TH AVE,MAIN ST / E 7TH AVE,"MAIN ST & E 7TH AVE , Vancouver, BC, Canada",49.26461,-123.1009,49.26509361,-123.1007998,1
396,Theft From Auto Under $5000,2007,1,12XX BIDWELL ST,1200 BIDWELL ST,"1200 BIDWELL ST , Vancouver, BC, Canada",49.2860018,-123.1403293,49.28632038,-123.1398808,1
397,Theft From Auto Under $5000,2007,1,10XX BLOCK CAMBIE ST,1000 BLOCK CAMBIE ST,"1000 BLOCK CAMBIE ST , Vancouver, BC, Canada",49.2758306,-123.1180589,49.27613551,-123.11771,1
398,Theft From Auto Under $5000,2007,1,HELMCKEN ST / RICHARDS ST,HELMCKEN ST / RICHARDS ST,"HELMCKEN ST & RICHARDS ST , Vancouver, BC, Canada",49.27695,-123.12264,49.27710348,-123.1222404,1
399,Theft From Auto Under $5000,2007,1,COLUMBIA ST / W 7TH AVE,COLUMBIA ST / W 7TH AVE,"COLUMBIA ST & W 7TH AVE , Vancouver, BC, Canada",49.26477,-123.10945,49.26508539,-123.109281,1
400,Theft From Auto Under $5000,2007,1,42XX BLOCK W 14TH AVE,4200 BLOCK W 14TH AVE,"4200 BLOCK W 14TH AVE , Vancouver, BC, Canada",49.2599151,-123.2002938,49.26013416,-123.1998016,1
401,Theft From Auto Under $5000,2007,1,ROBSON ST / SEYMOUR ST,ROBSON ST / SEYMOUR ST,"ROBSON ST & SEYMOUR ST , Vancouver, BC, Canada",49.28074,-123.11884,49.28114546,-123.1186814,1
402,Theft From Auto Under $5000,2007,1,9XX BURRARD ST,900 BURRARD ST,"900 BURRARD ST , Vancouver, BC, Canada",49.2815299,-123.12422,49.2817132,-123.1238051,1
403,Theft From Auto Under $5000,2007,1,9XX BLOCK E 50TH AVE,900 BLOCK E 50TH AVE,"900 BLOCK E 50TH AVE , Vancouver, BC, Canada",49.22437,-123.0866207,49.22467969,-123.0863906,1
404,Theft From Auto Under $5000,2007,1,7XX BLOCK W CORDOVA ST,700 BLOCK W CORDOVA ST,"700 BLOCK W CORDOVA ST , Vancouver, BC, Canada",49.2859645,-123.1130656,49.28627701,-123.1129608,1
405,Theft From Auto Under $5000,2007,1,8XX BLOCK RICHARDS ST,800 BLOCK RICHARDS ST,"800 BLOCK RICHARDS ST , Vancouver, BC, Canada",49.2798686,-123.1179346,49.28017586,-123.1176086,1
406,Theft From Auto Under $5000,2007,1,1XX WATER ST,100 WATER ST,"100 WATER ST , Vancouver, BC, Canada",49.2837861,-123.1065744,49.28425972,-123.1063753,1
407,Theft From Auto Under $5000,2007,1,CAMBIE ST / W CORDOVA ST,CAMBIE ST / W CORDOVA ST,"CAMBIE ST & W CORDOVA ST , Vancouver, BC, Canada",49.28352,-123.10913,49.28387435,-123.1086348,1
408,Theft From Auto Under $5000,2007,1,19XX TRIUMPH ST,1900 TRIUMPH ST,"1900 TRIUMPH ST , Vancouver, BC, Canada",49.2838351,-123.0652494,49.28411269,-123.0650012,1
409,Theft From Auto Under $5000,2007,1,5XX RICHARDS ST,500 RICHARDS ST,"500 RICHARDS ST , Vancouver, BC, Canada",49.2831573,-123.1129627,49.28328193,-123.1126252,1
410,Theft From Auto Under $5000,2007,1,ALMA ST / W BROADWAY AVE,ALMA ST / W BROADWAY AVE,"ALMA ST & W BROADWAY AVE , Vancouver, BC, Canada",49.26438,-123.18587,49.26451331,-123.1854528,1
411,Theft From Auto Under $5000,2007,1,3XX W GEORGIA ST,300 W GEORGIA ST,"300 W GEORGIA ST , Vancouver, BC, Canada",49.28008,-123.11534,49.28020088,-123.1150803,1
412,Theft From Auto Under $5000,2007,1,CAMBIE ST / W CORDOVA ST,CAMBIE ST / W CORDOVA ST,"CAMBIE ST & W CORDOVA ST , Vancouver, BC, Canada",49.28352,-123.10913,49.28374151,-123.1087098,1
413,Theft From Auto Under $5000,2007,1,7XX BLOCK HORNBY ST,700 BLOCK HORNBY ST,"700 BLOCK HORNBY ST , Vancouver, BC, Canada",49.2835268,-123.1201289,49.28374842,-123.1199728,1
414,Theft From Auto Under $5000,2007,1,NAPIER ST / VICTORIA DR,NAPIER ST / VICTORIA DR,"NAPIER ST & VICTORIA DR , Vancouver, BC, Canada",49.2748599,-123.06566,49.275105,-123.0652248,1
415,Theft From Auto Under $5000,2007,1,3XX BLOCK W GEORGIA ST,300 BLOCK W GEORGIA ST,"300 BLOCK W GEORGIA ST , Vancouver, BC, Canada",49.28008,-123.11534,49.28051954,-123.1148658,1
416,Theft From Auto Under $5000,2007,1,5XX BLOCK SEYMOUR ST,500 BLOCK SEYMOUR ST,"500 BLOCK SEYMOUR ST , Vancouver, BC, Canada",49.2837796,-123.113949,49.28415522,-123.1137204,1
417,Theft From Auto Under $5000,2007,1,6XX E 16TH AVE,600 E 16TH AVE,"600 E 16TH AVE , Vancouver, BC, Canada",49.2563151,-123.0916294,49.2564939,-123.0914686,1
418,Theft From Auto Under $5000,2007,1,1XX W 10TH AVE,100 W 10TH AVE,"100 W 10TH AVE , Vancouver, BC, Canada",49.2619851,-123.1070731,49.26223688,-123.106877,1
419,Theft From Auto Under $5000,2007,1,12XX HORNBY ST,1200 HORNBY ST,"1200 HORNBY ST , Vancouver, BC, Canada",49.27808,-123.12824,49.27820885,-123.1278715,1
420,Theft From Auto Under $5000,2007,1,21XX BLOCK CASSIAR ST,2100 BLOCK CASSIAR ST,"2100 BLOCK CASSIAR ST , Vancouver, BC, Canada",49.26541,-123.0308651,49.26582139,-123.030366,1
421,Theft From Auto Under $5000,2007,1,1XX W 10TH AVE,100 W 10TH AVE,"100 W 10TH AVE , Vancouver, BC, Canada",49.2619851,-123.1070731,49.26218998,-123.1067826,1
422,Theft From Auto Under $5000,2007,1,16XX BAYSHORE DR,1600 BAYSHORE DR,"1600 BAYSHORE DR , Vancouver, BC, Canada",49.2913563,-123.1295725,49.29157177,-123.1290976,1
423,Theft From Auto Under $5000,2007,1,10XX E 64TH AVE,1000 E 64TH AVE,"1000 E 64TH AVE , Vancouver, BC, Canada",49.2118649,-123.0854588,49.21217596,-123.0851596,1
424,Theft From Auto Under $5000,2007,1,6XX RICHARDS ST,600 RICHARDS ST,"600 RICHARDS ST , Vancouver, BC, Canada",49.2820977,-123.1145466,49.28233719,-123.1142931,1
425,Theft From Auto Under $5000,2007,1,ABBOTT ST / KEEFER PL,ABBOTT ST / KEEFER PL,"ABBOTT ST & KEEFER PL , Vancouver, BC, Canada",49.27971,-123.10762,49.2800888,-123.1071689,1
426,Theft From Auto Under $5000,2007,1,12XX LAMEYS MILL RD,1200 LAMEYS MILL RD,"1200 LAMEYS MILL RD , Vancouver, BC, Canada",49.2665273,-123.132167,49.26693194,-123.1319755,1
427,Theft From Auto Under $5000,2007,1,87XX OSLER ST,8700 OSLER ST,"8700 OSLER ST , Vancouver, BC, Canada",49.20681,-123.1315651,49.20715713,-123.1311522,1
428,Theft From Auto Under $5000,2007,1,55XX OLYMPIC ST,5500 OLYMPIC ST,"5500 OLYMPIC ST , Vancouver, BC, Canada",49.2362915,-123.1894038,49.23654426,-123.1892101,1
429,Theft From Auto Under $5000,2007,1,2XX BLOCK E 11TH AVE,200 BLOCK E 11TH AVE,"200 BLOCK E 11TH AVE , Vancouver, BC, Canada",49.2610147,-123.1001378,49.2614003,-123.0999367,1
430,Theft From Auto Under $5000,2007,1,9XX NICOLA ST,900 NICOLA ST,"900 NICOLA ST , Vancouver, BC, Canada",49.2876257,-123.1324382,49.28809761,-123.1323322,1
431,Theft From Auto Under $5000,2007,1,12XX GRANVILLE ST,1200 GRANVILLE ST,"1200 GRANVILLE ST , Vancouver, BC, Canada",49.2769284,-123.1262661,49.27717356,-123.1259487,1
432,Theft From Auto Under $5000,2007,1,1XX BLOCK W 10TH AVE,100 BLOCK W 10TH AVE,"100 BLOCK W 10TH AVE , Vancouver, BC, Canada",49.2619851,-123.1070731,49.26218022,-123.1066802,1
433,Theft From Auto Under $5000,2007,1,12XX GRANVILLE ST,1200 GRANVILLE ST,"1200 GRANVILLE ST , Vancouver, BC, Canada",49.2769284,-123.1262661,49.27728839,-123.1260414,1
434,Theft From Auto Under $5000,2007,1,6XX MARKET HILL,600 MARKET HILL,"600 MARKET HILL , Vancouver, BC, Canada",49.2671346,-123.1196316,49.26742434,-123.1193596,1
435,Theft From Auto Under $5000,2007,1,87XX GRANVILLE ST,8700 GRANVILLE ST,"8700 GRANVILLE ST , Vancouver, BC, Canada",49.2069707,-123.1403957,49.20709912,-123.1401883,1
436,Theft From Auto Under $5000,2007,1,13XX W GEORGIA ST,1300 W GEORGIA ST,"1300 W GEORGIA ST , Vancouver, BC, Canada",49.2879967,-123.1269638,49.28834854,-123.1268017,1
437,Theft From Auto Under $5000,2007,1,1XX W GEORGIA ST,100 W GEORGIA ST,"100 W GEORGIA ST , Vancouver, BC, Canada",49.2787064,-123.1125227,49.27890539,-123.1123503,1
438,Theft From Auto Under $5000,2007,1,54XX BLOCK WILLOW ST,5400 BLOCK WILLOW ST,"5400 BLOCK WILLOW ST , Vancouver, BC, Canada",49.2364643,-123.1234951,49.23695364,-123.1231371,1
439,Theft From Auto Under $5000,2007,1,3XX E 2ND AVE,300 E 2ND AVE,"300 E 2ND AVE , Vancouver, BC, Canada",49.2675505,-123.0981123,49.26782272,-123.0976389,1
440,Theft From Auto Under $5000,2007,1,14XX HARWOOD ST,1400 HARWOOD ST,"1400 HARWOOD ST , Vancouver, BC, Canada",49.2821882,-123.138494,49.28237877,-123.1381731,1
441,Theft From Auto Under $5000,2007,1,16XX BAYSHORE DR,1600 BAYSHORE DR,"1600 BAYSHORE DR , Vancouver, BC, Canada",49.2913563,-123.1295725,49.29168685,-123.1290757,1
442,Theft From Auto Under $5000,2007,1,5XX CARDERO ST,500 CARDERO ST,"500 CARDERO ST , Vancouver, BC, Canada",49.2916731,-123.1286419,49.29212827,-123.1283489,1
443,Theft From Auto Under $5000,2007,1,58XX BATTISON ST,5800 BATTISON ST,"5800 BATTISON ST , Vancouver, BC, Canada",49.2313105,-123.0304453,49.2317561,-123.03025,1
444,Theft From Auto Under $5000,2007,1,21XX COLLINGWOOD ST,2100 COLLINGWOOD ST,"2100 COLLINGWOOD ST , Vancouver, BC, Canada",49.2675339,-123.1815074,49.26795262,-123.1810879,1
445,Theft From Auto Under $5000,2007,1,9XX SEYMOUR ST,900 SEYMOUR ST,"900 SEYMOUR ST , Vancouver, BC, Canada",49.27925,-123.12051,49.27973745,-123.1200512,1
446,Theft From Auto Under $5000,2007,1,11XX HOWE ST,1100 HOWE ST,"1100 HOWE ST , Vancouver, BC, Canada",49.278619,-123.1257033,49.27895346,-123.1254814,1
447,Theft From Auto Under $5000,2007,1,1XX NANAIMO ST,100 NANAIMO ST,"100 NANAIMO ST , Vancouver, BC, Canada",49.2837595,-123.0564151,49.28388302,-123.0560583,1
448,Theft From Auto Under $5000,2007,1,5XX BLOCK KINGSWAY AVE,500 BLOCK KINGSWAY AVE,"500 BLOCK KINGSWAY AVE , Vancouver, BC, Canada",49.2575887,-123.0930202,49.25786018,-123.0926474,1
449,Theft From Auto Under $5000,2007,1,12XX HOMER ST,1200 HOMER ST,"1200 HOMER ST , Vancouver, BC, Canada",49.2750389,-123.1233824,49.27531244,-123.1231874,1
450,Theft From Auto Under $5000,2007,1,30XX E 4TH AVE,3000 E 4TH AVE,"3000 E 4TH AVE , Vancouver, BC, Canada",49.2665941,-123.041251,49.26702254,-123.0408707,1
451,Theft From Auto Under $5000,2007,1,17XX PENDRELL ST,1700 PENDRELL ST,"1700 PENDRELL ST , Vancouver, BC, Canada",49.2868963,-123.1394225,49.28727448,-123.1392925,1
452,Theft From Auto Under $5000,2007,1,25XX W 16TH AVE,2500 W 16TH AVE,"2500 W 16TH AVE , Vancouver, BC, Canada",49.2573151,-123.1628405,49.25746632,-123.1624319,1
453,Theft From Auto Under $5000,2007,1,9XX SEYMOUR ST,900 SEYMOUR ST,"900 SEYMOUR ST , Vancouver, BC, Canada",49.27925,-123.12051,49.27948886,-123.1203649,1
454,Theft From Auto Under $5000,2007,1,SENLAC ST / SCHOOL AVE,SENLAC ST / SCHOOL AVE,"SENLAC ST & SCHOOL AVE , Vancouver, BC, Canada",49.23175,-123.03423,49.23210003,-123.0339162,1
455,Theft From Auto Under $5000,2007,1,20XX TRIUMPH ST,2000 TRIUMPH ST,"2000 TRIUMPH ST , Vancouver, BC, Canada",49.2838247,-123.0633105,49.28401234,-123.0631855,1
456,Theft From Auto Under $5000,2007,1,1XX W 12TH AVE,100 W 12TH AVE,"100 W 12TH AVE , Vancouver, BC, Canada",49.2601651,-123.1071519,49.26036332,-123.1068164,1
457,Theft From Auto Under $5000,2007,1,17XX BARCLAY ST,1700 BARCLAY ST,"1700 BARCLAY ST , Vancouver, BC, Canada",49.2890269,-123.1362341,49.28922051,-123.1361267,1
458,Theft From Auto Under $5000,2007,1,54XX CECIL ST,5400 CECIL ST,"5400 CECIL ST , Vancouver, BC, Canada",49.235665,-123.0356836,49.23611275,-123.035325,1
459,Theft From Auto Under $5000,2007,1,58XX ORMIDALE ST,5800 ORMIDALE ST,"5800 ORMIDALE ST , Vancouver, BC, Canada",49.2315752,-123.0248725,49.23174264,-123.0245496,1
460,Theft From Auto Under $5000,2007,1,11XX GRANVILLE ST,1100 GRANVILLE ST,"1100 GRANVILLE ST , Vancouver, BC, Canada",49.27778,-123.12465,49.27817573,-123.1245041,1
461,Theft From Auto Under $5000,2007,1,16XX COMOX ST,1600 COMO0 ST,"1600 COMO0 ST , Vancouver, BC, Canada",49.2865959,-123.1368103,49.28683684,-123.1365662,1
462,Theft From Auto Under $5000,2007,1,8XX E BROADWAY AVE,800 E BROADWAY AVE,"800 E BROADWAY AVE , Vancouver, BC, Canada",49.26214,-123.08677,49.26262489,-123.0866509,1
463,Theft From Auto Under $5000,2007,1,34XX W 7TH AVE,3400 W 7TH AVE,"3400 W 7TH AVE , Vancouver, BC, Canada",49.2658251,-123.1799841,49.26606045,-123.1795465,1
464,Theft From Auto Under $5000,2007,1,59XX ORMIDALE ST,5900 ORMIDALE ST,"5900 ORMIDALE ST , Vancouver, BC, Canada",49.2306097,-123.024846,49.23105278,-123.0246135,1
465,Theft From Auto Under $5000,2007,1,59XX ORMIDALE ST,5900 ORMIDALE ST,"5900 ORMIDALE ST , Vancouver, BC, Canada",49.2306097,-123.024846,49.23073272,-123.0245605,1
466,Theft From Auto Under $5000,2007,1,9XX W GEORGIA ST,900 W GEORGIA ST,"900 W GEORGIA ST , Vancouver, BC, Canada",49.28372,-123.12111,49.28400842,-123.1207002,1
467,Theft From Auto Under $5000,2007,1,16XX BAYSHORE DR,1600 BAYSHORE DR,"1600 BAYSHORE DR , Vancouver, BC, Canada",49.2913563,-123.1295725,49.29166244,-123.1292016,1
468,Theft From Auto Under $5000,2007,1,79XX BLOCK KNIGHT ST,7900 BLOCK KNIGHT ST,"7900 BLOCK KNIGHT ST , Vancouver, BC, Canada",49.2127864,-123.0769951,49.21304071,-123.0767625,1
469,Theft From Auto Under $5000,2007,1,BEACH AVE / BURRARD ST,BEACH AVE / BURRARD ST,"BEACH AVE & BURRARD ST , Vancouver, BC, Canada",49.27602,-123.13375,49.27632124,-123.1332919,1
470,Theft From Auto Under $5000,2007,1,14XX QUEBEC ST,1400 QUEBEC ST,"1400 QUEBEC ST , Vancouver, BC, Canada",49.2736051,-123.1019349,49.27399543,-123.1016339,1
471,Theft From Auto Under $5000,2007,1,HORNBY ST / SMITHE ST,HORNBY ST / SMITHE ST,"HORNBY ST & SMITHE ST , Vancouver, BC, Canada",49.28155,-123.12337,49.28186073,-123.1231216,1
472,Theft From Auto Under $5000,2007,1,14XX VERNON DR,1400 VERNON DR,"1400 VERNON DR , Vancouver, BC, Canada",49.2723086,-123.0784835,49.27272779,-123.0781191,1
473,Theft From Auto Under $5000,2007,1,34XX W 5TH AVE,3400 W 5TH AVE,"3400 W 5TH AVE , Vancouver, BC, Canada",49.2675152,-123.1799049,49.26799391,-123.1794263,1
474,Theft From Auto Under $5000,2007,1,35XX W 4TH AVE,3500 W 4TH AVE,"3500 W 4TH AVE , Vancouver, BC, Canada",49.2684251,-123.1818833,49.26858514,-123.181565,1
475,Theft From Auto Under $5000,2007,1,9XX HORNBY ST,900 HORNBY ST,"900 HORNBY ST , Vancouver, BC, Canada",49.2813167,-123.1234445,49.28150625,-123.1229652,1
476,Theft From Auto Under $5000,2007,1,11XX SEYMOUR ST,1100 SEYMOUR ST,"1100 SEYMOUR ST , Vancouver, BC, Canada",49.2773487,-123.123703,49.27766817,-123.1235914,1
477,Theft From Auto Under $5000,2007,1,E PENDER ST / DUNLEVY AVE,E PENDER ST / DUNLEVY AVE,"E PENDER ST & DUNLEVY AVE , Vancouver, BC, Canada",49.28031,-123.09544,49.28055137,-123.0951708,1
478,Theft From Auto Under $5000,2007,1,9XX SEYMOUR ST,900 SEYMOUR ST,"900 SEYMOUR ST , Vancouver, BC, Canada",49.27925,-123.12051,49.27959433,-123.1200446,1
479,Theft From Auto Under $5000,2007,1,3XX E 2ND AVE,300 E 2ND AVE,"300 E 2ND AVE , Vancouver, BC, Canada",49.2675505,-123.0981123,49.26801382,-123.0978544,1
480,Theft From Auto Under $5000,2007,1,33XX MAQUINNA DR,3300 MAQUINNA DR,"3300 MAQUINNA DR , Vancouver, BC, Canada",49.2154737,-123.0334945,49.21576783,-123.0332005,1
481,Theft From Auto Under $5000,2007,1,6XX MARKET HILL,600 MARKET HILL,"600 MARKET HILL , Vancouver, BC, Canada",49.2671346,-123.1196316,49.26739502,-123.119283,1
482,Theft From Auto Under $5000,2007,1,ADANAC ST / WOODLAND DR,ADANAC ST / WOODLAND DR,"ADANAC ST & WOODLAND DR , Vancouver, BC, Canada",49.27762,-123.07272,49.27804103,-123.0723609,1
483,Theft From Auto Under $5000,2007,1,KINGSWAY AVE / WESSEX ST,KINGSWAY AVE / WESSE0 ST,"KINGSWAY AVE & WESSE0 ST , Vancouver, BC, Canada",49.23322,-123.03408,49.2334844,-123.0337385,1
484,Theft From Auto Under $5000,2007,1,21XX BLOCK RUPERT ST,2100 BLOCK RUPERT ST,"2100 BLOCK RUPERT ST , Vancouver, BC, Canada",49.2655368,-123.0336351,49.26568806,-123.0331948,1
485,Theft From Auto Under $5000,2007,1,13XX ROBSON ST,1300 ROBSON ST,"1300 ROBSON ST , Vancouver, BC, Canada",49.28707,-123.12925,49.2872239,-123.1290937,1
486,Theft From Auto Under $5000,2007,1,KINGSWAY AVE / BURSILL ST,KINGSWAY AVE / BURSILL ST,"KINGSWAY AVE & BURSILL ST , Vancouver, BC, Canada",49.23706,-123.04339,49.23748133,-123.0429203,1
487,Theft From Auto Under $5000,2007,1,49XX MCGEER ST,4900 MCGEER ST,"4900 MCGEER ST , Vancouver, BC, Canada",49.2405995,-123.0320446,49.24070815,-123.0316511,1
488,Theft From Auto Under $5000,2007,1,41XX STAULO CRES,4100 STAULO CRES,"4100 STAULO CRES , Vancouver, BC, Canada",49.2281252,-123.198035,49.22840295,-123.1979202,1
489,Theft From Auto Under $5000,2007,1,71XX BLOCK FLEMING ST,7100 BLOCK FLEMING ST,"7100 BLOCK FLEMING ST , Vancouver, BC, Canada",49.2194413,-123.0737935,49.21971571,-123.0735132,1
490,Theft From Auto Under $5000,2007,1,8XX BLOCK BUTE ST,800 BLOCK BUTE ST,"800 BLOCK BUTE ST , Vancouver, BC, Canada",49.2857826,-123.1270719,49.28626716,-123.1267486,1
491,Theft From Auto Under $5000,2007,1,6XX E 16TH AVE,600 E 16TH AVE,"600 E 16TH AVE , Vancouver, BC, Canada",49.2563151,-123.0916294,49.25666891,-123.0914594,1
492,Theft From Auto Under $5000,2007,1,13XX BLOCK PENDRELL ST,1300 BLOCK PENDRELL ST,"1300 BLOCK PENDRELL ST , Vancouver, BC, Canada",49.2834561,-123.1340711,49.28361876,-123.1336065,1
493,Theft From Auto Under $5000,2007,1,14XX BLOCK PENDRELL ST,1400 BLOCK PENDRELL ST,"1400 BLOCK PENDRELL ST , Vancouver, BC, Canada",49.2843866,-123.135503,49.28450847,-123.1352772,1
494,Theft From Auto Under $5000,2007,1,6XX E 16TH AVE,600 E 16TH AVE,"600 E 16TH AVE , Vancouver, BC, Canada",49.2563151,-123.0916294,49.25656118,-123.0912623,1
495,Theft From Auto Under $5000,2007,1,32XX BLOCK W 39TH AVE,3200 BLOCK W 39TH AVE,"3200 BLOCK W 39TH AVE , Vancouver, BC, Canada",49.2365251,-123.1760294,49.23684442,-123.175606,1
496,Theft From Auto Under $5000,2007,1,1XX BLOCK E CORDOVA ST,100 BLOCK E CORDOVA ST,"100 BLOCK E CORDOVA ST , Vancouver, BC, Canada",49.28207,-123.10198,49.28220837,-123.1017562,1
497,Theft From Auto Under $5000,2007,1,W PENDER ST / SEYMOUR ST,W PENDER ST / SEYMOUR ST,"W PENDER ST & SEYMOUR ST , Vancouver, BC, Canada",49.28401,-123.11388,49.28420917,-123.1135941,1
498,Theft From Auto Under $5000,2007,1,DUNSMUIR ST / HOMER ST,DUNSMUIR ST / HOMER ST,"DUNSMUIR ST & HOMER ST , Vancouver, BC, Canada",49.2817,-123.11349,49.28203077,-123.1133451,1
499,Theft From Auto Under $5000,2007,1,10XX HOMER ST,1000 HOMER ST,"1000 HOMER ST , Vancouver, BC, Canada",49.2770887,-123.1201572,49.27756688,-123.1198918,1
500,Theft From Auto Under $5000,2007,1,1XX W 10TH AVE,100 W 10TH AVE,"100 W 10TH AVE , Vancouver, BC, Canada",49.2619851,-123.1070731,49.26214943,-123.1067004,1
501,Theft From Auto Under $5000,2007,1,4XX BLOCK W 41ST AVE,400 BLOCK W 41ST AVE,"400 BLOCK W 41ST AVE , Vancouver, BC, Canada",49.2333366,-123.1140594,49.23346212,-123.1137993,1
502,Theft From Auto Under $5000,2007,1,18XX COMOX ST,1800 COMO0 ST,"1800 COMO0 ST , Vancouver, BC, Canada",49.2886073,-123.1399655,49.28875151,-123.139609,1
503,Theft From Auto Under $5000,2007,1,8XX POWELL ST,800 POWELL ST,"800 POWELL ST , Vancouver, BC, Canada",49.2828251,-123.086837,49.28322784,-123.0866355,1
504,Theft From Auto Under $5000,2007,1,14XX ROBSON ST,1400 ROBSON ST,"1400 ROBSON ST , Vancouver, BC, Canada",49.28807,-123.13081,49.28829825,-123.1305294,1
505,Theft From Auto Under $5000,2007,1,18XX COMOX ST,1800 COMO0 ST,"1800 COMO0 ST , Vancouver, BC, Canada",49.2886073,-123.1399655,49.28893231,-123.1395617,1
506,Theft From Auto Under $5000,2007,1,58XX ORMIDALE ST,5800 ORMIDALE ST,"5800 ORMIDALE ST , Vancouver, BC, Canada",49.2315752,-123.0248725,49.2318617,-123.024694,1
507,Theft From Auto Under $5000,2007,1,16XX BAYSHORE DR,1600 BAYSHORE DR,"1600 BAYSHORE DR , Vancouver, BC, Canada",49.2913563,-123.1295725,49.29157818,-123.1294343,1
508,Theft From Auto Under $5000,2007,1,32XX COLUMBIA ST,3200 COLUMBIA ST,"3200 COLUMBIA ST , Vancouver, BC, Canada",49.2566022,-123.1095551,49.25683288,-123.1091387,1
509,Theft From Auto Under $5000,2007,1,80XX ARGYLE ST,8000 ARGYLE ST,"8000 ARGYLE ST , Vancouver, BC, Canada",49.2118299,-123.0718642,49.21215719,-123.0714017,1
510,Theft From Auto Under $5000,2007,1,8XX W 14TH AVE,800 W 14TH AVE,"800 W 14TH AVE , Vancouver, BC, Canada",49.2584952,-123.1222057,49.25886815,-123.1218904,1
511,Theft From Auto Under $5000,2007,1,17XX W 12TH AVE,1700 W 12TH AVE,"1700 W 12TH AVE , Vancouver, BC, Canada",49.2607251,-123.1436827,49.26093622,-123.1434701,1
512,Theft From Auto Under $5000,2007,1,81XX ST GEORGE ST,8100 ST GEORGE ST,"8100 ST GEORGE ST , Vancouver, BC, Canada",49.2116242,-123.0940675,49.21176411,-123.0939527,1
513,Theft From Auto Under $5000,2007,1,13XX HARO ST,1300 HARO ST,"1300 HARO ST , Vancouver, BC, Canada",49.2863061,-123.1298613,49.28659392,-123.1297527,1
514,Theft From Auto Under $5000,2007,1,20XX COMOX ST,2000 COMO0 ST,"2000 COMO0 ST , Vancouver, BC, Canada",49.2905461,-123.1428513,49.29069432,-123.1427041,1
515,Theft From Auto Under $5000,2007,1,12XX BLOCK E KING EDWARD AVE,1200 BLOCK E KING EDWARD AVE,"1200 BLOCK E KING EDWARD AVE , Vancouver, BC, Canada",49.2483851,-123.079835,49.24862238,-123.0794765,1
516,Theft From Auto Under $5000,2007,1,16XX BAYSHORE DR,1600 BAYSHORE DR,"1600 BAYSHORE DR , Vancouver, BC, Canada",49.2913563,-123.1295725,49.29168403,-123.1293868,1
517,Theft From Auto Under $5000,2007,1,11XX MELVILLE ST,1100 MELVILLE ST,"1100 MELVILLE ST , Vancouver, BC, Canada",49.28658,-123.12282,49.28678586,-123.1224813,1
518,Theft From Auto Under $5000,2007,1,10XX BLOCK BROUGHTON ST,1000 BLOCK BROUGHTON ST,"1000 BLOCK BROUGHTON ST , Vancouver, BC, Canada",49.2855799,-123.13323,49.28596017,-123.132984,1
519,Theft From Auto Under $5000,2007,1,56XX BLOCK HAROLD ST,5600 BLOCK HAROLD ST,"5600 BLOCK HAROLD ST , Vancouver, BC, Canada",49.2333991,-123.034895,49.23360191,-123.0345147,1
520,Theft From Auto Under $5000,2007,1,STEPHENS ST / W 10TH AVE,STEPHENS ST / W 10TH AVE,"STEPHENS ST & W 10TH AVE , Vancouver, BC, Canada",49.26316,-123.16626,49.26335628,-123.1661522,1
521,Theft From Auto Under $5000,2007,1,43XX W 9TH AVE,4300 W 9TH AVE,"4300 W 9TH AVE , Vancouver, BC, Canada",49.26436,-123.20322,49.26457509,-123.2027769,1
522,Theft From Auto Under $5000,2007,1,43XX BLOCK W 9TH AVE,4300 BLOCK W 9TH AVE,"4300 BLOCK W 9TH AVE , Vancouver, BC, Canada",49.26436,-123.20322,49.26485564,-123.2030833,1
523,Theft From Auto Under $5000,2007,1,33XX BLOCK KINGSWAY AVE,3300 BLOCK KINGSWAY AVE,"3300 BLOCK KINGSWAY AVE , Vancouver, BC, Canada",49.2339245,-123.0357616,49.23432675,-123.0353661,1
524,Theft From Auto Under $5000,2007,1,BEATTY ST / SMITHE ST,BEATTY ST / SMITHE ST,"BEATTY ST & SMITHE ST , Vancouver, BC, Canada",49.27396,-123.11471,49.27407032,-123.1142867,1
525,Theft From Auto Under $5000,2007,1,54XX BLOCK RUPERT ST,5400 BLOCK RUPERT ST,"5400 BLOCK RUPERT ST , Vancouver, BC, Canada",49.2357011,-123.0423767,49.23593873,-123.041877,1
526,Theft From Auto Under $5000,2007,1,HAMILTON ST / SMITHE ST,HAMILTON ST / SMITHE ST,"HAMILTON ST & SMITHE ST , Vancouver, BC, Canada",49.27773,-123.11744,49.27795404,-123.1172773,1
527,Theft From Auto Under $5000,2007,1,BEATTY ST / W GEORGIA ST,BEATTY ST / W GEORGIA ST,"BEATTY ST & W GEORGIA ST , Vancouver, BC, Canada",49.27874,-123.1123,49.27902502,-123.1119977,1
528,Theft From Auto Under $5000,2007,1,1XX W GEORGIA ST,100 W GEORGIA ST,"100 W GEORGIA ST , Vancouver, BC, Canada",49.2787064,-123.1125227,49.2790152,-123.1121988,1
529,Theft From Auto Under $5000,2007,1,25XX YORK AVE,2500 YORK AVE,"2500 YORK AVE , Vancouver, BC, Canada",49.2716852,-123.1623052,49.27204261,-123.1619637,1
530,Theft From Auto Under $5000,2007,1,19XX W 41ST AVE,1900 W 41ST AVE,"1900 W 41ST AVE , Vancouver, BC, Canada",49.2343551,-123.1494717,49.2345558,-123.1491641,1
531,Theft From Auto Under $5000,2007,1,16XX E HASTINGS ST,1600 E HASTINGS ST,"1600 E HASTINGS ST , Vancouver, BC, Canada",49.2811246,-123.0723687,49.28140742,-123.0720392,1
532,Theft From Auto Under $5000,2007,1,GRANVILLE ST / ROBSON ST,GRANVILLE ST / ROBSON ST,"GRANVILLE ST & ROBSON ST , Vancouver, BC, Canada",49.28137,-123.1198,49.28178911,-123.1196446,1
533,Theft From Auto Under $5000,2007,1,8XX LAGOON DR,800 LAGOON DR,"800 LAGOON DR , Vancouver, BC, Canada",49.2932736,-123.1384823,49.29366383,-123.1383072,1
534,Theft From Auto Under $5000,2007,1,12XX BLOCK ROBSON ST,1200 BLOCK ROBSON ST,"1200 BLOCK ROBSON ST , Vancouver, BC, Canada",49.2859863,-123.1272122,49.28629647,-123.127093,1
535,Theft From Auto Under $5000,2007,1,9XX SEYMOUR ST,900 SEYMOUR ST,"900 SEYMOUR ST , Vancouver, BC, Canada",49.27925,-123.12051,49.27967907,-123.1201653,1
536,Theft From Auto Under $5000,2007,1,15XX W 12TH AVE,1500 W 12TH AVE,"1500 W 12TH AVE , Vancouver, BC, Canada",49.2606651,-123.1388802,49.26091148,-123.138576,1
537,Theft From Auto Under $5000,2007,1,1XX DRAKE ST,100 DRAKE ST,"100 DRAKE ST , Vancouver, BC, Canada",49.2719285,-123.1216797,49.27206699,-123.121431,1
538,Theft From Auto Under $5000,2007,1,ALBERNI ST / THURLOW ST,ALBERNI ST / THURLOW ST,"ALBERNI ST & THURLOW ST , Vancouver, BC, Canada",49.2853,-123.12378,49.28553049,-123.1235102,1
539,Theft From Auto Under $5000,2007,1,21XX W 37TH AVE,2100 W 37TH AVE,"2100 W 37TH AVE , Vancouver, BC, Canada",49.2381751,-123.1556901,49.23853707,-123.1552152,1
540,Theft From Auto Under $5000,2007,1,26XX NAPIER ST,2600 NAPIER ST,"2600 NAPIER ST , Vancouver, BC, Canada",49.2749051,-123.0517593,49.27524828,-123.0513261,1
541,Theft From Auto Under $5000,2007,1,10XX BEACH AVE,1000 BEACH AVE,"1000 BEACH AVE , Vancouver, BC, Canada",49.27562,-123.1342,49.27592632,-123.1338081,1
542,Theft From Auto Under $5000,2007,1,16XX BAYSHORE DR,1600 BAYSHORE DR,"1600 BAYSHORE DR , Vancouver, BC, Canada",49.2913563,-123.1295725,49.29159634,-123.1291231,1
543,Theft From Auto Under $5000,2007,1,9XX CAMBIE ST,900 CAMBIE ST,"900 CAMBIE ST , Vancouver, BC, Canada",49.27689,-123.1165941,49.27737186,-123.1163831,1
544,Theft From Auto Under $5000,2007,1,41XX BRANT ST,4100 BRANT ST,"4100 BRANT ST , Vancouver, BC, Canada",49.2486762,-123.057794,49.2491283,-123.0573204,1
545,Theft From Auto Under $5000,2007,1,9XX W GEORGIA ST,900 W GEORGIA ST,"900 W GEORGIA ST , Vancouver, BC, Canada",49.28372,-123.12111,49.28400788,-123.1206147,1
546,Theft From Auto Under $5000,2007,1,10XX PACIFIC BLVD,1000 PACIFIC BLVD,"1000 PACIFIC BLVD , Vancouver, BC, Canada",49.2739957,-123.1150765,49.27414869,-123.1147073,1
547,Theft From Auto Under $5000,2007,1,11XX MAIN ST,1100 MAIN ST,"1100 MAIN ST , Vancouver, BC, Canada",49.2751778,-123.0997168,49.27563964,-123.0993743,1
548,Theft From Auto Under $5000,2007,1,1XX W GEORGIA ST,100 W GEORGIA ST,"100 W GEORGIA ST , Vancouver, BC, Canada",49.2787064,-123.1125227,49.27885851,-123.1121274,1
549,Theft From Auto Under $5000,2007,1,23XX CAMBIE ST,2300 CAMBIE ST,"2300 CAMBIE ST , Vancouver, BC, Canada",49.2647608,-123.114536,49.26525757,-123.1141653,1
550,Theft From Auto Under $5000,2007,1,2XX N TEMPLETON DR,200 N TEMPLETON DR,"200 N TEMPLETON DR , Vancouver, BC, Canada",49.2867701,-123.0594751,49.28717025,-123.0592969,1
551,Theft From Auto Under $5000,2007,1,8XX CARRALL ST,800 CARRALL ST,"800 CARRALL ST , Vancouver, BC, Canada",49.2770996,-123.1061656,49.27750485,-123.105969,1
552,Theft From Auto Under $5000,2007,1,29XX E 56TH AVE,2900 E 56TH AVE,"2900 E 56TH AVE , Vancouver, BC, Canada",49.2185815,-123.0454226,49.21900652,-123.0449747,1
553,Theft From Auto Under $5000,2007,1,5XX BLOCK RICHARDS ST,500 BLOCK RICHARDS ST,"500 BLOCK RICHARDS ST , Vancouver, BC, Canada",49.2831573,-123.1129627,49.28329385,-123.1126547,1
554,Theft From Auto Under $5000,2007,1,11XX MAIN ST,1100 MAIN ST,"1100 MAIN ST , Vancouver, BC, Canada",49.2751778,-123.0997168,49.27546971,-123.0995424,1
555,Theft From Auto Under $5000,2007,1,5XX CARDERO ST,500 CARDERO ST,"500 CARDERO ST , Vancouver, BC, Canada",49.2916731,-123.1286419,49.29201843,-123.1284117,1
556,Theft From Auto Under $5000,2007,1,7XX E PENDER ST,700 E PENDER ST,"700 E PENDER ST , Vancouver, BC, Canada",49.27992,-123.0894,49.2802257,-123.0889263,1
557,Theft From Auto Under $5000,2007,1,39XX W 35TH AVE,3900 W 35TH AVE,"3900 W 35TH AVE , Vancouver, BC, Canada",49.2403551,-123.1911518,49.24058296,-123.1908743,1
558,Theft From Auto Under $5000,2007,1,15XX HARWOOD ST,1500 HARWOOD ST,"1500 HARWOOD ST , Vancouver, BC, Canada",49.2830065,-123.1399126,49.28330415,-123.1396798,1
559,Theft From Auto Under $5000,2007,1,58XX ORMIDALE ST,5800 ORMIDALE ST,"5800 ORMIDALE ST , Vancouver, BC, Canada",49.2315752,-123.0248725,49.23181758,-123.0245904,1
560,Theft From Auto Under $5000,2007,1,68XX LANCASTER ST,6800 LANCASTER ST,"6800 LANCASTER ST , Vancouver, BC, Canada",49.2223611,-123.0424592,49.22273685,-123.0419785,1
561,Theft From Auto Under $5000,2007,1,4XX W 17TH AVE,400 W 17TH AVE,"400 W 17TH AVE , Vancouver, BC, Canada",49.2556951,-123.1127342,49.25601479,-123.1124794,1
562,Theft From Auto Under $5000,2007,1,11XX GRANVILLE ST,1100 GRANVILLE ST,"1100 GRANVILLE ST , Vancouver, BC, Canada",49.27778,-123.12465,49.27804511,-123.1242225,1
563,Theft From Auto Under $5000,2007,1,8XX BLOCK W 14TH AVE,800 BLOCK W 14TH AVE,"800 BLOCK W 14TH AVE , Vancouver, BC, Canada",49.2584952,-123.1222057,49.25892028,-123.1217108,1
564,Theft From Auto Under $5000,2007,1,13XX SE MARINE DR,1300 SE MARINE DR,"1300 SE MARINE DR , Vancouver, BC, Canada",49.2109651,-123.0804936,49.21116751,-123.0800743,1
565,Theft From Auto Under $5000,2007,1,13XX HOMER ST,1300 HOMER ST,"1300 HOMER ST , Vancouver, BC, Canada",49.2739612,-123.1249849,49.27426423,-123.1247168,1
566,Theft From Auto Under $5000,2007,1,12XX ROBSON ST,1200 ROBSON ST,"1200 ROBSON ST , Vancouver, BC, Canada",49.2859863,-123.1272122,49.28624655,-123.1269904,1
567,Theft From Auto Under $5000,2007,1,10XX W BROADWAY AVE,1000 W BROADWAY AVE,"1000 W BROADWAY AVE , Vancouver, BC, Canada",49.2632851,-123.12681,49.26351935,-123.1264014,1
568,Theft From Auto Under $5000,2007,1,1XX W HASTINGS ST,100 W HASTINGS ST,"100 W HASTINGS ST , Vancouver, BC, Canada",49.2818961,-123.1074143,49.28214797,-123.1072308,1
569,Theft From Auto Under $5000,2007,1,9XX E 21ST AVE,900 E 21ST AVE,"900 E 21ST AVE , Vancouver, BC, Canada",49.2517651,-123.0855355,49.2520615,-123.0851685,1
570,Theft From Auto Under $5000,2007,1,1XX E CORDOVA ST,100 E CORDOVA ST,"100 E CORDOVA ST , Vancouver, BC, Canada",49.28207,-123.10198,49.28225894,-123.1017376,1
571,Theft From Auto Under $5000,2007,1,FRASER ST / E 43RD AVE,FRASER ST / E 43RD AVE,"FRASER ST & E 43RD AVE , Vancouver, BC, Canada",49.23105,-123.09064,49.23147215,-123.0904621,1
572,Theft From Auto Under $5000,2007,1,56XX BLOCK STAMFORD ST,5600 BLOCK STAMFORD ST,"5600 BLOCK STAMFORD ST , Vancouver, BC, Canada",49.2333249,-123.03139,49.23381114,-123.0310802,1
573,Theft From Auto Under $5000,2007,1,9XX W HASTINGS ST,900 W HASTINGS ST,"900 W HASTINGS ST , Vancouver, BC, Canada",49.28661,-123.11651,49.28686315,-123.1162718,1
574,Theft From Auto Under $5000,2007,1,10XX BURRARD ST,1000 BURRARD ST,"1000 BURRARD ST , Vancouver, BC, Canada",49.27986,-123.12661,49.28027477,-123.12618,1
575,Theft From Auto Under $5000,2007,1,5XX BLOCK RICHARDS ST,500 BLOCK RICHARDS ST,"500 BLOCK RICHARDS ST , Vancouver, BC, Canada",49.2831573,-123.1129627,49.28355114,-123.1125107,1
576,Theft From Auto Under $5000,2007,1,12XX E PENDER ST,1200 E PENDER ST,"1200 E PENDER ST , Vancouver, BC, Canada",49.2802251,-123.0789693,49.28049628,-123.0785499,1
577,Theft From Auto Under $5000,2007,1,8XX W BROADWAY AVE,800 W BROADWAY AVE,"800 W BROADWAY AVE , Vancouver, BC, Canada",49.2632051,-123.1220434,49.26331155,-123.1215581,1
578,Theft From Auto Under $5000,2007,1,7XX PACIFIC BLVD,700 PACIFIC BLVD,"700 PACIFIC BLVD , Vancouver, BC, Canada",49.2767277,-123.108784,49.27708586,-123.1084239,1
579,Theft From Auto Under $5000,2007,1,14XX QUEBEC ST,1400 QUEBEC ST,"1400 QUEBEC ST , Vancouver, BC, Canada",49.2736051,-123.1019349,49.27389061,-123.1017956,1
580,Theft From Auto Under $5000,2007,1,7XX HORNBY ST,700 HORNBY ST,"700 HORNBY ST , Vancouver, BC, Canada",49.2835268,-123.1201289,49.28396507,-123.1198716,1
581,Theft From Auto Under $5000,2007,1,52XX MAPLE ST,5200 MAPLE ST,"5200 MAPLE ST , Vancouver, BC, Canada",49.2390016,-123.1517951,49.23945606,-123.1516203,1
582,Theft From Auto Under $5000,2007,1,12XX BARCLAY ST,1200 BARCLAY ST,"1200 BARCLAY ST , Vancouver, BC, Canada",49.284547,-123.1294044,49.28473782,-123.128999,1
583,Theft From Auto Under $5000,2007,1,16XX W 66TH AVE,1600 W 66TH AVE,"1600 W 66TH AVE , Vancouver, BC, Canada",49.2113251,-123.1438216,49.21166513,-123.1436317,1
584,Theft From Auto Under $5000,2007,1,30XX KINGSWAY AVE,3000 KINGSWAY AVE,"3000 KINGSWAY AVE , Vancouver, BC, Canada",49.2357833,-123.0421559,49.23598675,-123.0418131,1
585,Theft From Auto Under $5000,2007,1,14XX BLOCK E 45TH AVE,1400 BLOCK E 45TH AVE,"1400 BLOCK E 45TH AVE , Vancouver, BC, Canada",49.2289324,-123.0769561,49.22939813,-123.0768038,1
586,Theft From Auto Under $5000,2007,1,1XX E PENDER ST,100 E PENDER ST,"100 E PENDER ST , Vancouver, BC, Canada",49.28017,-123.10214,49.28063987,-123.1016965,1
587,Theft From Auto Under $5000,2007,1,BURRARD ST / W CORDOVA ST,BURRARD ST / W CORDOVA ST,"BURRARD ST & W CORDOVA ST , Vancouver, BC, Canada",49.28766,-123.1162,49.28785453,-123.1160674,1
588,Theft From Auto Under $5000,2007,1,10XX W WATERFRONT RD,1000 W WATERFRONT RD,"1000 W WATERFRONT RD , Vancouver, BC, Canada",49.2866,-123.11081,49.28675198,-123.1104553,1
589,Theft From Auto Under $5000,2007,1,10XX W BROADWAY AVE,1000 W BROADWAY AVE,"1000 W BROADWAY AVE , Vancouver, BC, Canada",49.2632851,-123.12681,49.26373087,-123.1266312,1
590,Theft From Auto Under $5000,2007,1,10XX W BROADWAY AVE,1000 W BROADWAY AVE,"1000 W BROADWAY AVE , Vancouver, BC, Canada",49.2632851,-123.12681,49.2634463,-123.1264156,1
591,Theft From Auto Under $5000,2007,1,11XX ROBSON ST,1100 ROBSON ST,"1100 ROBSON ST , Vancouver, BC, Canada",49.28457,-123.12536,49.28492952,-123.1251344,1
592,Theft From Auto Under $5000,2007,1,6XX GRANVILLE ST,600 GRANVILLE ST,"600 GRANVILLE ST , Vancouver, BC, Canada",49.2833707,-123.1165078,49.28379591,-123.1163151,1
593,Theft From Auto Under $5000,2007,1,81XX CARTIER ST,8100 CARTIER ST,"8100 CARTIER ST , Vancouver, BC, Canada",49.2121047,-123.1375149,49.21223262,-123.1372499,1
594,Theft From Auto Under $5000,2007,1,12XX W 48TH AVE,1200 W 48TH AVE,"1200 W 48TH AVE , Vancouver, BC, Canada",49.227528,-123.1330087,49.22776851,-123.1326221,1
595,Theft From Auto Under $5000,2007,1,15XX E 63RD AVE,1500 E 63RD AVE,"1500 E 63RD AVE , Vancouver, BC, Canada",49.2127802,-123.075237,49.21294835,-123.0749742,1
596,Theft From Auto Under $5000,2007,1,1XX PACIFIC BLVD,100 PACIFIC BLVD,"100 PACIFIC BLVD , Vancouver, BC, Canada",49.2769892,-123.1066999,49.27710804,-123.1062399,1
597,Theft From Auto Under $5000,2007,1,37XX W 8TH AVE,3700 W 8TH AVE,"3700 W 8TH AVE , Vancouver, BC, Canada",49.2650851,-123.185895,49.26535816,-123.1857845,1
598,Theft From Auto Under $5000,2007,1,13XX W BROADWAY AVE,1300 W BROADWAY AVE,"1300 W BROADWAY AVE , Vancouver, BC, Canada",49.2633651,-123.1339247,49.26348179,-123.1335179,1
599,Theft From Auto Under $5000,2007,1,8XX W 12TH AVE,800 W 12TH AVE,"800 W 12TH AVE , Vancouver, BC, Canada",49.2603751,-123.12194,49.26081828,-123.1214595,1
600,Theft From Auto Under $5000,2007,1,11XX SEYMOUR ST,1100 SEYMOUR ST,"1100 SEYMOUR ST , Vancouver, BC, Canada",49.2773487,-123.123703,49.27759316,-123.1233507,1
601,Theft From Auto Under $5000,2007,1,14XX BLOCK E 62ND AVE,1400 BLOCK E 62ND AVE,"1400 BLOCK E 62ND AVE , Vancouver, BC, Canada",49.2136551,-123.0769197,49.21398924,-123.0766238,1
602,Theft From Auto Under $5000,2007,1,12XX BLOCK CARDERO ST,1200 BLOCK CARDERO ST,"1200 BLOCK CARDERO ST , Vancouver, BC, Canada",49.2850043,-123.1387297,49.28538278,-123.1385619,1
