"","TYPE","YEAR","MONTH","HUNDRED_BLOCK","full_address","lat","lon","cid","lat_offset","lon_offset"
"1","Mischief Over $5000",2009,1,"3600 W 1ST AVE","3600 W 1ST AVE 3600 W 1ST AVE  , Vancouver, BC, Canada, Vancouver, BC, Canada, Vancouver, BC, Canada",49.2711451,-123.1837431,1,49.2712859440174,-123.18338204173
"2","Mischief Over $5000",2009,1,"1200 GRANVILLE ST","1200 GRANVILLE ST 1200 GRANVILLE ST  , Vancouver, BC, Canada, Vancouver, BC, Canada, Vancouver, BC, Canada",49.2769284,-123.1262661,1,49.2771918011868,-123.125879679167
"3","Mischief Over $5000",2009,1,"1200 GRANVILLE ST","1200 GRANVILLE ST 1200 GRANVILLE ST  , Vancouver, BC, Canada, Vancouver, BC, Canada, Vancouver, BC, Canada",49.2769284,-123.1262661,1,49.2771674555031,-123.126125914002
"4","Mischief Over $5000",2009,2,"300 E 44TH AVE","300 E 44TH AVE 300 E 44TH AVE  , Vancouver, BC, Canada, Vancouver, BC, Canada, Vancouver, BC, Canada",49.2301243,-123.0991992,1,49.2304795918711,-123.098758083956
"5","Mischief Over $5000",2009,2,"7400 ONTARIO ST","7400 ONTARIO ST 7400 ONTARIO ST  , Vancouver, BC, Canada, Vancouver, BC, Canada, Vancouver, BC, Canada",49.217648,-123.1060205,1,49.2178255156192,-123.105633317005
"6","Mischief Over $5000",2009,3,"1000 GRANVILLE ST","1000 GRANVILLE ST 1000 GRANVILLE ST  , Vancouver, BC, Canada, Vancouver, BC, Canada, Vancouver, BC, Canada",49.2790092,-123.1231334,1,49.2792468023719,-123.122871075977
"7","Mischief Over $5000",2009,3,"1000 RICHARDS ST","1000 RICHARDS ST 1000 RICHARDS ST  , Vancouver, BC, Canada, Vancouver, BC, Canada, Vancouver, BC, Canada",49.277729,-123.1211458,1,49.2779065840644,-123.120937579287
"8","Mischief Over $5000",2009,3,"400 SE MARINE DR","400 SE MARINE DR 400 SE MARINE DR  , Vancouver, BC, Canada, Vancouver, BC, Canada, Vancouver, BC, Canada",49.21041,-123.09654,1,49.2106622681618,-123.096132060964
"9","Mischief Over $5000",2009,4,"5900 RUPERT ST","5900 RUPERT ST 5900 RUPERT ST  , Vancouver, BC, Canada, Vancouver, BC, Canada, Vancouver, BC, Canada",49.2303735,-123.0429851,1,49.2306601166046,-123.042555006497
"10","Mischief Over $5000",2009,4,"400 ROBSON ST","400 ROBSON ST 400 ROBSON ST  , Vancouver, BC, Canada, Vancouver, BC, Canada, Vancouver, BC, Canada",49.2794265,-123.1170928,1,49.2797872179807,-123.116755487752
"11","Mischief Over $5000",2009,4,"BEACH AVE / GRANVILLE ST","BEACH AVE / GRANVILLE ST BEACH AVE / GRANVILLE ST  , Vancouver, BC, Canada, Vancouver, BC, Canada, Vancouver, BC, Canada",49.2842399,-123.11549,1,49.2846585998055,-123.115188295375
"12","Mischief Over $5000",2009,4,"700 ALE0ANDER ST","700 ALE0ANDER ST 700 ALE0ANDER ST  , Vancouver, BC, Canada, Vancouver, BC, Canada, Vancouver, BC, Canada",49.26039,-123.11336,1,49.2608196911153,-123.113102749207
"13","Mischief Over $5000",2009,5,"5500 FRASER ST","5500 FRASER ST 5500 FRASER ST  , Vancouver, BC, Canada, Vancouver, BC, Canada, Vancouver, BC, Canada",49.2346624,-123.0903138,1,49.2351622966463,-123.090202020439
"14","Mischief Over $5000",2009,5,"700 DUNSMUIR ST","700 DUNSMUIR ST 700 DUNSMUIR ST  , Vancouver, BC, Canada, Vancouver, BC, Canada, Vancouver, BC, Canada",49.28373,-123.11671,1,49.283946600222,-123.116419012413
"15","Mischief Over $5000",2009,5,"1400 GRANVILLE ST","1400 GRANVILLE ST 1400 GRANVILLE ST  , Vancouver, BC, Canada, Vancouver, BC, Canada, Vancouver, BC, Canada",49.274692,-123.1295579,1,49.2748567677452,-123.12929573129
"16","Mischief Over $5000",2009,6,"3000 MILLER DR","3000 MILLER DR 3000 MILLER DR  , Vancouver, BC, Canada, Vancouver, BC, Canada, Vancouver, BC, Canada",49.13474,-122.61278,1,49.1349486903204,-122.612295867558
"17","Mischief Over $5000",2009,6,"700 DUNSMUIR ST","700 DUNSMUIR ST 700 DUNSMUIR ST  , Vancouver, BC, Canada, Vancouver, BC, Canada, Vancouver, BC, Canada",49.28373,-123.11671,1,49.2838874347801,-123.116503190814
"18","Mischief Over $5000",2009,6,"5500 YEW ST","5500 YEW ST 5500 YEW ST  , Vancouver, BC, Canada, Vancouver, BC, Canada, Vancouver, BC, Canada",49.2363102,-123.1582571,1,49.2367633367498,-123.157759731627
"19","Mischief Over $5000",2009,6,"4700 SLOCAN ST","4700 SLOCAN ST 4700 SLOCAN ST  , Vancouver, BC, Canada, Vancouver, BC, Canada, Vancouver, BC, Canada",49.2422843,-123.0515798,1,49.2424894269097,-123.051223646784
"20","Mischief Over $5000",2009,6,"700 W GEORGIA ST","700 W GEORGIA ST 700 W GEORGIA ST  , Vancouver, BC, Canada, Vancouver, BC, Canada, Vancouver, BC, Canada",49.28276,-123.11871,1,49.2832526589606,-123.118390598738
"21","Theft From Auto Under $5000",2009,1,"2400 W 3RD AVE","2400 W 3RD AVE 2400 W 3RD AVE  , Vancouver, BC, Canada, Vancouver, BC, Canada, Vancouver, BC, Canada",49.2690251,-123.1599814,2,49.2694484019812,-123.159859559799
"22","Theft From Auto Under $5000",2009,1,"1200 W 12TH AVE","1200 W 12TH AVE 1200 W 12TH AVE  , Vancouver, BC, Canada, Vancouver, BC, Canada, Vancouver, BC, Canada",49.2605151,-123.1316234,2,49.2608861299506,-123.131245183476
"23","Theft From Auto Under $5000",2009,1,"2300 W BROADWAY AVE","2300 W BROADWAY AVE 2300 W BROADWAY AVE  , Vancouver, BC, Canada, Vancouver, BC, Canada, Vancouver, BC, Canada",49.2637851,-123.157842,2,49.2641102529018,-123.157588440013
"24","Theft From Auto Under $5000",2009,1,"1500 W 1ST AVE","1500 W 1ST AVE 1500 W 1ST AVE  , Vancouver, BC, Canada, Vancouver, BC, Canada, Vancouver, BC, Canada",49.2712962,-123.140072,2,49.2714251345427,-123.139590309499
"25","Theft From Auto Under $5000",2009,1,"E 10TH AVE / PRINCE EDWARD ST","E 10TH AVE / PRINCE EDWARD ST E 10TH AVE / PRINCE EDWARD ST  , Vancouver, BC, Canada, Vancouver, BC, Canada, Vancouver, BC, Canada",49.26174,-123.09609,2,49.262130567489,-123.095743748031
"26","Theft From Auto Under $5000",2009,1,"1400 W 6TH AVE","1400 W 6TH AVE 1400 W 6TH AVE  , Vancouver, BC, Canada, Vancouver, BC, Canada, Vancouver, BC, Canada",49.2660151,-123.1362129,2,49.2661190485617,-123.135998080543
"27","Theft From Auto Under $5000",2009,1,"800 W 16TH AVE","800 W 16TH AVE 800 W 16TH AVE  , Vancouver, BC, Canada, Vancouver, BC, Canada, Vancouver, BC, Canada",49.2569151,-123.1222016,2,49.2573091748901,-123.121845512195
"28","Theft From Auto Under $5000",2009,1,"1000 W GEORGIA ST","1000 W GEORGIA ST 1000 W GEORGIA ST  , Vancouver, BC, Canada, Vancouver, BC, Canada, Vancouver, BC, Canada",49.2843551,-123.1212978,2,49.2845968219787,-123.121157767134
"29","Theft From Auto Under $5000",2009,1,"600 CITADEL PRDE","600 CITADEL PRDE 600 CITADEL PRDE  , Vancouver, BC, Canada, Vancouver, BC, Canada, Vancouver, BC, Canada",49.279193,-123.1101975,2,49.2794021145827,-123.110006257968
"30","Theft From Auto Under $5000",2009,1,"400 E HASTINGS ST","400 E HASTINGS ST 400 E HASTINGS ST  , Vancouver, BC, Canada, Vancouver, BC, Canada, Vancouver, BC, Canada",49.2811047,-123.0951412,2,49.2813732077992,-123.094944098213
"31","Theft From Auto Under $5000",2009,1,"1200 JOHNSTON ST","1200 JOHNSTON ST 1200 JOHNSTON ST  , Vancouver, BC, Canada, Vancouver, BC, Canada, Vancouver, BC, Canada",49.2695781,-123.1322376,2,49.2697957591667,-123.131978169824
"32","Theft From Auto Under $5000",2009,1,"2100 QUEBEC ST","2100 QUEBEC ST 2100 QUEBEC ST  , Vancouver, BC, Canada, Vancouver, BC, Canada, Vancouver, BC, Canada",49.2662909,-123.1026065,2,49.2663928052194,-123.102218667296
"33","Theft From Auto Under $5000",2009,1,"1700 VINE ST","1700 VINE ST 1700 VINE ST  , Vancouver, BC, Canada, Vancouver, BC, Canada, Vancouver, BC, Canada",49.2707069,-123.1571544,2,49.2709801238831,-123.156794999854
"34","Theft From Auto Under $5000",2009,1,"3000 MAIN ST","3000 MAIN ST 3000 MAIN ST  , Vancouver, BC, Canada, Vancouver, BC, Canada, Vancouver, BC, Canada",49.258261,-123.100944,2,49.2585178885314,-123.100614841423
"35","Theft From Auto Under $5000",2009,1,"ALBERNI ST / NICOLA ST","ALBERNI ST / NICOLA ST ALBERNI ST / NICOLA ST  , Vancouver, BC, Canada, Vancouver, BC, Canada, Vancouver, BC, Canada",49.28627,-123.12532,2,49.2865817989155,-123.124864604942
"36","Theft From Auto Under $5000",2009,1,"500 E 5TH AVE","500 E 5TH AVE 500 E 5TH AVE  , Vancouver, BC, Canada, Vancouver, BC, Canada, Vancouver, BC, Canada",49.2660847,-123.0927606,2,49.2664643211416,-123.092288035174
"37","Theft From Auto Under $5000",2009,1,"1500 MARINER WALK","1500 MARINER WALK 1500 MARINER WALK  , Vancouver, BC, Canada, Vancouver, BC, Canada, Vancouver, BC, Canada",49.2698514,-123.1392441,2,49.2702102513128,-123.139101655189
"38","Theft From Auto Under $5000",2009,1,"700 PACIFIC BLVD","700 PACIFIC BLVD 700 PACIFIC BLVD  , Vancouver, BC, Canada, Vancouver, BC, Canada, Vancouver, BC, Canada",49.2767277,-123.108784,2,49.2770960185491,-123.108504054505
"39","Theft From Auto Under $5000",2009,1,"1900 W 1ST AVE","1900 W 1ST AVE 1900 W 1ST AVE  , Vancouver, BC, Canada, Vancouver, BC, Canada, Vancouver, BC, Canada",49.27044,-123.14811,2,49.2709031666991,-123.147722319813
"40","Theft From Auto Under $5000",2009,1,"1600 BALSAM ST","1600 BALSAM ST 1600 BALSAM ST  , Vancouver, BC, Canada, Vancouver, BC, Canada, Vancouver, BC, Canada",49.2716434,-123.1594941,2,49.2719810402062,-123.159130778482
"41","Theft From Auto Under $5000",2009,1,"8600 SELKIRK ST","8600 SELKIRK ST 8600 SELKIRK ST  , Vancouver, BC, Canada, Vancouver, BC, Canada, Vancouver, BC, Canada",49.2083492,-123.1330838,2,49.208642614554,-123.132637697187
"42","Theft From Auto Under $5000",2009,1,"100 NATIONAL AVE","100 NATIONAL AVE 100 NATIONAL AVE  , Vancouver, BC, Canada, Vancouver, BC, Canada, Vancouver, BC, Canada",49.2747751,-123.1016311,2,49.2749383283478,-123.101199060607
"43","Theft From Auto Under $5000",2009,1,"4100 W 13TH AVE","4100 W 13TH AVE 4100 W 13TH AVE  , Vancouver, BC, Canada, Vancouver, BC, Canada, Vancouver, BC, Canada",49.2607751,-123.1972317,2,49.2612647257221,-123.197042041162
"44","Theft From Auto Under $5000",2009,1,"8000 ARGYLE ST","8000 ARGYLE ST 8000 ARGYLE ST  , Vancouver, BC, Canada, Vancouver, BC, Canada, Vancouver, BC, Canada",49.2118299,-123.0718642,2,49.2121054739437,-123.071699782839
"45","Theft From Auto Under $5000",2009,1,"COLUMBIA ST / E PENDER ST","COLUMBIA ST / E PENDER ST COLUMBIA ST / E PENDER ST  , Vancouver, BC, Canada, Vancouver, BC, Canada, Vancouver, BC, Canada",49.2804,-123.10085,2,49.2807765198999,-123.100645549423
"46","Theft From Auto Under $5000",2009,1,"PINE ST / W BROADWAY AVE","PINE ST / W BROADWAY AVE PINE ST / W BROADWAY AVE  , Vancouver, BC, Canada, Vancouver, BC, Canada, Vancouver, BC, Canada",49.2631299,-123.10986,2,49.2633420855691,-123.109697637943
"47","Theft From Auto Under $5000",2009,1,"3300 KINGSWAY AVE","3300 KINGSWAY AVE 3300 KINGSWAY AVE  , Vancouver, BC, Canada, Vancouver, BC, Canada, Vancouver, BC, Canada",49.2339245,-123.0357616,2,49.2341121146906,-123.035422102304
"48","Theft From Auto Under $5000",2009,1,"700 W 6TH AVE","700 W 6TH AVE 700 W 6TH AVE  , Vancouver, BC, Canada, Vancouver, BC, Canada, Vancouver, BC, Canada",49.26563,-123.12014,2,49.2659556537027,-123.119779241982
"49","Theft From Auto Under $5000",2009,1,"800 AVISON WAY","800 AVISON WAY 800 AVISON WAY  , Vancouver, BC, Canada, Vancouver, BC, Canada, Vancouver, BC, Canada",49.2979379,-123.1311265,2,49.2980942870663,-123.130799106301
"50","Theft From Auto Under $5000",2009,1,"3500 E 29TH AVE","3500 E 29TH AVE 3500 E 29TH AVE  , Vancouver, BC, Canada, Vancouver, BC, Canada, Vancouver, BC, Canada",49.2443551,-123.0283098,2,49.2448083415817,-123.027928859006
"51","Theft From Auto Under $5000",2009,1,"1800 W 2ND AVE","1800 W 2ND AVE 1800 W 2ND AVE  , Vancouver, BC, Canada, Vancouver, BC, Canada, Vancouver, BC, Canada",49.2696451,-123.1457721,2,49.2700963689167,-123.145419314924
"52","Theft From Auto Under $5000",2009,1,"COMMERCIAL DR / E BROADWAY AVE","COMMERCIAL DR / E BROADWAY AVE COMMERCIAL DR / E BROADWAY AVE  , Vancouver, BC, Canada, Vancouver, BC, Canada, Vancouver, BC, Canada",49.26237,-123.06707,2,49.2627121163939,-123.066573764535
"53","Theft From Auto Under $5000",2009,1,"900 W CORDOVA ST","900 W CORDOVA ST 900 W CORDOVA ST  , Vancouver, BC, Canada, Vancouver, BC, Canada, Vancouver, BC, Canada",49.2871601,-123.1151302,2,49.2874277473576,-123.114938755082
"54","Theft From Auto Under $5000",2009,1,"700 W GEORGIA ST","700 W GEORGIA ST 700 W GEORGIA ST  , Vancouver, BC, Canada, Vancouver, BC, Canada, Vancouver, BC, Canada",49.28276,-123.11871,2,49.2829809297051,-123.11837293148
"55","Theft From Auto Under $5000",2009,1,"5600 YEW ST","5600 YEW ST 5600 YEW ST  , Vancouver, BC, Canada, Vancouver, BC, Canada, Vancouver, BC, Canada",49.2354147,-123.1574642,2,49.2358987937282,-123.157044850612
"56","Theft From Auto Under $5000",2009,1,"1400 W BROADWAY AVE","1400 W BROADWAY AVE 1400 W BROADWAY AVE  , Vancouver, BC, Canada, Vancouver, BC, Canada, Vancouver, BC, Canada",49.2634151,-123.1363002,2,49.2637312477355,-123.135960595645
"57","Theft From Auto Under $5000",2009,1,"400 PRINCESS AVE","400 PRINCESS AVE 400 PRINCESS AVE  , Vancouver, BC, Canada, Vancouver, BC, Canada, Vancouver, BC, Canada",49.2810312,-123.0913051,2,49.2814011573375,-123.091195954044
"58","Theft From Auto Under $5000",2009,1,"500 W 12TH AVE","500 W 12TH AVE 500 W 12TH AVE  , Vancouver, BC, Canada, Vancouver, BC, Canada, Vancouver, BC, Canada",49.2601,-123.11546,2,49.2603709247206,-123.11532201662
"59","Theft From Auto Under $5000",2009,1,"2500 W BROADWAY AVE","2500 W BROADWAY AVE 2500 W BROADWAY AVE  , Vancouver, BC, Canada, Vancouver, BC, Canada, Vancouver, BC, Canada",49.2638551,-123.1626329,2,49.2640857098376,-123.162372729918
"60","Theft From Auto Under $5000",2009,1,"BURRARD ST / W GEORGIA ST","BURRARD ST / W GEORGIA ST BURRARD ST / W GEORGIA ST  , Vancouver, BC, Canada, Vancouver, BC, Canada, Vancouver, BC, Canada",49.28407,-123.12058,2,49.2841722635279,-123.120391383898
"61","Theft From Auto Under $5000",2009,1,"E HASTINGS ST / GORE AVE","E HASTINGS ST / GORE AVE E HASTINGS ST / GORE AVE  , Vancouver, BC, Canada, Vancouver, BC, Canada, Vancouver, BC, Canada",49.28137,-123.10093,2,49.2817965449891,-123.100756203645
"62","Theft From Auto Under $5000",2009,1,"1700 GRANT ST","1700 GRANT ST 1700 GRANT ST  , Vancouver, BC, Canada, Vancouver, BC, Canada, Vancouver, BC, Canada",49.2711151,-123.0693739,2,49.2715111915468,-123.069022099788
"63","Theft From Auto Under $5000",2009,1,"2300 W BROADWAY AVE","2300 W BROADWAY AVE 2300 W BROADWAY AVE  , Vancouver, BC, Canada, Vancouver, BC, Canada, Vancouver, BC, Canada",49.2637851,-123.157842,2,49.2638980583374,-123.157619933548
"64","Theft From Auto Under $5000",2009,1,"3400 SE MARINE DR","3400 SE MARINE DR 3400 SE MARINE DR  , Vancouver, BC, Canada, Vancouver, BC, Canada, Vancouver, BC, Canada",49.2081584,-123.0324529,2,49.2085192442464,-123.032177528639
"65","Theft From Auto Under $5000",2009,1,"1300 HARWOOD ST","1300 HARWOOD ST 1300 HARWOOD ST  , Vancouver, BC, Canada, Vancouver, BC, Canada, Vancouver, BC, Canada",49.2813861,-123.1372612,2,49.2817578421519,-123.136803155652
"66","Theft From Auto Under $5000",2009,1,"BURRARD ST / NELSON ST","BURRARD ST / NELSON ST BURRARD ST / NELSON ST  , Vancouver, BC, Canada, Vancouver, BC, Canada, Vancouver, BC, Canada",49.27962,-123.12829,2,49.2799905712553,-123.128062347034
"67","Theft From Auto Under $5000",2009,1,"1100 BURNABY ST","1100 BURNABY ST 1100 BURNABY ST  , Vancouver, BC, Canada, Vancouver, BC, Canada, Vancouver, BC, Canada",49.2796268,-123.1325035,2,49.2797488242297,-123.132323970253
"68","Theft From Auto Under $5000",2009,1,"1400 ROBSON ST","1400 ROBSON ST 1400 ROBSON ST  , Vancouver, BC, Canada, Vancouver, BC, Canada, Vancouver, BC, Canada",49.28807,-123.13081,2,49.2882963171754,-123.130603213692
"69","Theft From Auto Under $5000",2009,1,"4100 OAK ST","4100 OAK ST 4100 OAK ST  , Vancouver, BC, Canada, Vancouver, BC, Canada, Vancouver, BC, Canada",49.2490835,-123.1273663,2,49.2495381004287,-123.126896785744
"70","Theft From Auto Under $5000",2009,1,"4100 OAK ST","4100 OAK ST 4100 OAK ST  , Vancouver, BC, Canada, Vancouver, BC, Canada, Vancouver, BC, Canada",49.2490835,-123.1273663,2,49.2494219088721,-123.127176582071
"71","Theft From Auto Under $5000",2009,1,"3300 COBBLESTONE AVE","3300 COBBLESTONE AVE 3300 COBBLESTONE AVE  , Vancouver, BC, Canada, Vancouver, BC, Canada, Vancouver, BC, Canada",49.2077847,-123.0338722,2,49.2078874252762,-123.033417095368
"72","Theft From Auto Under $5000",2009,1,"SEYMOUR ST / W PENDER ST","SEYMOUR ST / W PENDER ST SEYMOUR ST / W PENDER ST  , Vancouver, BC, Canada, Vancouver, BC, Canada, Vancouver, BC, Canada",49.2808,-123.10597,2,49.2812678511427,-123.105830851379
"73","Theft From Auto Under $5000",2009,1,"5700 DUNBAR ST","5700 DUNBAR ST 5700 DUNBAR ST  , Vancouver, BC, Canada, Vancouver, BC, Canada, Vancouver, BC, Canada",49.2347531,-123.1852351,2,49.2351664362633,-123.184950140429
"74","Theft From Auto Under $5000",2009,1,"DUNSMUIR ST / RICHARDS ST","DUNSMUIR ST / RICHARDS ST DUNSMUIR ST / RICHARDS ST  , Vancouver, BC, Canada, Vancouver, BC, Canada, Vancouver, BC, Canada",49.28172,-123.11352,2,49.2818560678125,-123.113274907778
"75","Theft From Auto Under $5000",2009,1,"700 W BROADWAY AVE","700 W BROADWAY AVE 700 W BROADWAY AVE  , Vancouver, BC, Canada, Vancouver, BC, Canada, Vancouver, BC, Canada",49.26302,-123.12013,2,49.2634805070063,-123.119959333856
"76","Theft From Auto Under $5000",2009,1,"800 W CORDOVA ST","800 W CORDOVA ST 800 W CORDOVA ST  , Vancouver, BC, Canada, Vancouver, BC, Canada, Vancouver, BC, Canada",49.2865805,-123.1140758,2,49.2867566786621,-123.113720243331
"77","Theft From Auto Under $5000",2009,1,"400 CAMBIE ST","400 CAMBIE ST 400 CAMBIE ST  , Vancouver, BC, Canada, Vancouver, BC, Canada, Vancouver, BC, Canada",49.2824449,-123.1093962,2,49.2826146316575,-123.109045541064
"78","Theft From Auto Under $5000",2009,1,"900 PACIFIC BLVD","900 PACIFIC BLVD 900 PACIFIC BLVD  , Vancouver, BC, Canada, Vancouver, BC, Canada, Vancouver, BC, Canada",49.2746674,-123.113159,2,49.2751627103021,-123.112669564783
"79","Theft From Auto Under $5000",2009,1,"500 RICHARDS ST","500 RICHARDS ST 500 RICHARDS ST  , Vancouver, BC, Canada, Vancouver, BC, Canada, Vancouver, BC, Canada",49.2831573,-123.1129627,2,49.2832926675088,-123.112535811
"80","Theft From Auto Under $5000",2009,1,"900 BEACH AVE","900 BEACH AVE 900 BEACH AVE  , Vancouver, BC, Canada, Vancouver, BC, Canada, Vancouver, BC, Canada",49.2753659,-123.1330103,2,49.275481440419,-123.132765246864
"81","Theft From Auto Under $5000",2009,1,"500 PIPELINE RD","500 PIPELINE RD 500 PIPELINE RD  , Vancouver, BC, Canada, Vancouver, BC, Canada, Vancouver, BC, Canada",49.2997628,-123.1355634,2,49.3000341615323,-123.135201060709
"82","Theft From Auto Under $5000",2009,1,"SEYMOUR ST / W PENDER ST","SEYMOUR ST / W PENDER ST SEYMOUR ST / W PENDER ST  , Vancouver, BC, Canada, Vancouver, BC, Canada, Vancouver, BC, Canada",49.2808,-123.10597,2,49.2809393190737,-123.105493438367
"83","Theft From Auto Under $5000",2009,1,"1000 ROBSON ST","1000 ROBSON ST 1000 ROBSON ST  , Vancouver, BC, Canada, Vancouver, BC, Canada, Vancouver, BC, Canada",49.28333,-123.12328,2,49.2838225377327,-123.122947823923
"84","Theft From Auto Under $5000",2009,1,"1100 ROBSON ST","1100 ROBSON ST 1100 ROBSON ST  , Vancouver, BC, Canada, Vancouver, BC, Canada, Vancouver, BC, Canada",49.28457,-123.12536,2,49.2848350882464,-123.125163106256
"85","Theft From Auto Under $5000",2009,1,"2400 SPRUCE ST","2400 SPRUCE ST 2400 SPRUCE ST  , Vancouver, BC, Canada, Vancouver, BC, Canada, Vancouver, BC, Canada",49.2642321,-123.1288351,2,49.2645214225062,-123.128337682517
"86","Theft From Auto Under $5000",2009,1,"3200 W 41ST AVE","3200 W 41ST AVE 3200 W 41ST AVE  , Vancouver, BC, Canada, Vancouver, BC, Canada, Vancouver, BC, Canada",49.2346351,-123.1768918,2,49.234863825221,-123.176511144275
"87","Theft From Auto Under $5000",2009,1,"3200 W 41ST AVE","3200 W 41ST AVE 3200 W 41ST AVE  , Vancouver, BC, Canada, Vancouver, BC, Canada, Vancouver, BC, Canada",49.2346351,-123.1768918,2,49.2347671511654,-123.176452075086
"88","Theft From Auto Under $5000",2009,1,"SEYMOUR ST / W PENDER ST","SEYMOUR ST / W PENDER ST SEYMOUR ST / W PENDER ST  , Vancouver, BC, Canada, Vancouver, BC, Canada, Vancouver, BC, Canada",49.2808,-123.10597,2,49.2809617487433,-123.105636252719
"89","Theft From Auto Under $5000",2009,1,"2400 BLENHEIM ST","2400 BLENHEIM ST 2400 BLENHEIM ST  , Vancouver, BC, Canada, Vancouver, BC, Canada, Vancouver, BC, Canada",49.2649628,-123.1776651,2,49.2653144800826,-123.177360398609
"90","Theft From Auto Under $5000",2009,1,"E 41ST AVE / SHERBROOKE ST","E 41ST AVE / SHERBROOKE ST E 41ST AVE / SHERBROOKE ST  , Vancouver, BC, Canada, Vancouver, BC, Canada, Vancouver, BC, Canada",49.23836,-123.08134,2,49.238623435032,-123.080879347433
"91","Theft From Auto Under $5000",2009,1,"CAMBIE ST / W 41ST AVE","CAMBIE ST / W 41ST AVE CAMBIE ST / W 41ST AVE  , Vancouver, BC, Canada, Vancouver, BC, Canada, Vancouver, BC, Canada",49.23383,-123.12414,2,49.2340424290421,-123.12369872412
"92","Theft From Auto Under $5000",2009,1,"1600 HORNBY ST","1600 HORNBY ST 1600 HORNBY ST  , Vancouver, BC, Canada, Vancouver, BC, Canada, Vancouver, BC, Canada",49.27398,-123.13412,2,49.2743470729503,-123.133870239201
"93","Theft From Auto Under $5000",2009,1,"5400 INVERNESS ST","5400 INVERNESS ST 5400 INVERNESS ST  , Vancouver, BC, Canada, Vancouver, BC, Canada, Vancouver, BC, Canada",49.2356984,-123.0795951,2,49.2359116311577,-123.079452086524
"94","Theft From Auto Under $5000",2009,1,"5200 PRINCE ALBERT ST","5200 PRINCE ALBERT ST 5200 PRINCE ALBERT ST  , Vancouver, BC, Canada, Vancouver, BC, Canada, Vancouver, BC, Canada",49.2375874,-123.0878855,2,49.2378477115813,-123.087584791393
"95","Theft From Auto Under $5000",2009,1,"800 BIDWELL ST","800 BIDWELL ST 800 BIDWELL ST  , Vancouver, BC, Canada, Vancouver, BC, Canada, Vancouver, BC, Canada",49.2902569,-123.1339816,2,49.2906312752557,-123.133756772079
"96","Theft From Auto Under $5000",2009,1,"1100 BURNABY ST","1100 BURNABY ST 1100 BURNABY ST  , Vancouver, BC, Canada, Vancouver, BC, Canada, Vancouver, BC, Canada",49.2796268,-123.1325035,2,49.2799783353545,-123.132219910805
"97","Theft From Auto Under $5000",2009,1,"1200 RICHARDS ST","1200 RICHARDS ST 1200 RICHARDS ST  , Vancouver, BC, Canada, Vancouver, BC, Canada, Vancouver, BC, Canada",49.2756286,-123.1243363,2,49.2758547967837,-123.124182306546
"98","Theft From Auto Under $5000",2009,1,"700 RICHARDS ST","700 RICHARDS ST 700 RICHARDS ST  , Vancouver, BC, Canada, Vancouver, BC, Canada, Vancouver, BC, Canada",49.2809974,-123.1162264,2,49.281384704313,-123.115791302675
"99","Theft From Auto Under $5000",2009,1,"1700 W 8TH AVE","1700 W 8TH AVE 1700 W 8TH AVE  , Vancouver, BC, Canada, Vancouver, BC, Canada, Vancouver, BC, Canada",49.2644751,-123.1435914,2,49.2647423412832,-123.143302268244
"100","Theft From Auto Under $5000",2009,1,"BUTE ST / ROBSON ST","BUTE ST / ROBSON ST BUTE ST / ROBSON ST  , Vancouver, BC, Canada, Vancouver, BC, Canada, Vancouver, BC, Canada",49.28559,-123.12634,2,49.2857340470764,-123.125842991284
"101","Theft From Auto Under $5000",2009,1,"1200 HARWOOD ST","1200 HARWOOD ST 1200 HARWOOD ST  , Vancouver, BC, Canada, Vancouver, BC, Canada, Vancouver, BC, Canada",49.2803664,-123.1357121,2,49.2806295918075,-123.135336386283
"102","Theft From Auto Under $5000",2009,1,"BEACH AVE / BURRARD ST","BEACH AVE / BURRARD ST BEACH AVE / BURRARD ST  , Vancouver, BC, Canada, Vancouver, BC, Canada, Vancouver, BC, Canada",49.27532,-123.13745,2,49.2755563084409,-123.137331279019
"103","Theft From Auto Under $5000",2009,1,"100 W CORDOVA ST","100 W CORDOVA ST 100 W CORDOVA ST  , Vancouver, BC, Canada, Vancouver, BC, Canada, Vancouver, BC, Canada",49.2828258,-123.1070009,2,49.2831437343559,-123.106725630518
"104","Theft From Auto Under $5000",2009,1,"500 RICHARDS ST","500 RICHARDS ST 500 RICHARDS ST  , Vancouver, BC, Canada, Vancouver, BC, Canada, Vancouver, BC, Canada",49.2831573,-123.1129627,2,49.2834669239065,-123.11251861259
"105","Theft From Auto Under $5000",2009,1,"800 AVISON WAY","800 AVISON WAY 800 AVISON WAY  , Vancouver, BC, Canada, Vancouver, BC, Canada, Vancouver, BC, Canada",49.2979379,-123.1311265,2,49.2983996240361,-123.130716978211
"106","Theft From Auto Under $5000",2009,1,"4600 BELLEVUE DR","4600 BELLEVUE DR 4600 BELLEVUE DR  , Vancouver, BC, Canada, Vancouver, BC, Canada, Vancouver, BC, Canada",49.27162,-123.2125,2,49.27180278094,-123.21200182503
"107","Theft From Auto Under $5000",2009,1,"700 W GEORGIA ST","700 W GEORGIA ST 700 W GEORGIA ST  , Vancouver, BC, Canada, Vancouver, BC, Canada, Vancouver, BC, Canada",49.28276,-123.11871,2,49.2831401716029,-123.118564000197
"108","Theft From Auto Under $5000",2009,1,"1000 ALBERNI ST","1000 ALBERNI ST 1000 ALBERNI ST  , Vancouver, BC, Canada, Vancouver, BC, Canada, Vancouver, BC, Canada",49.2839249,-123.1219471,2,49.2843945626247,-123.121647895937
"109","Theft From Auto Under $5000",2009,1,"3400 KINGSWAY AVE","3400 KINGSWAY AVE 3400 KINGSWAY AVE  , Vancouver, BC, Canada, Vancouver, BC, Canada, Vancouver, BC, Canada",49.2325298,-123.0330701,2,49.232645769868,-123.032628924412
"110","Theft From Auto Under $5000",2009,1,"1300 PENDRELL ST","1300 PENDRELL ST 1300 PENDRELL ST  , Vancouver, BC, Canada, Vancouver, BC, Canada, Vancouver, BC, Canada",49.2834561,-123.1340711,2,49.283732333758,-123.133809969496
"111","Theft From Auto Under $5000",2009,1,"5800 FLEMING ST","5800 FLEMING ST 5800 FLEMING ST  , Vancouver, BC, Canada, Vancouver, BC, Canada, Vancouver, BC, Canada",49.2315987,-123.0726627,2,49.2319337012057,-123.072429951792
"112","Theft From Auto Under $5000",2009,1,"2500 PARKER ST","2500 PARKER ST 2500 PARKER ST  , Vancouver, BC, Canada, Vancouver, BC, Canada, Vancouver, BC, Canada",49.2756751,-123.054405,2,49.276090771872,-123.054132654178
"113","Theft From Auto Under $5000",2009,1,"6400 WEST BLVD","6400 WEST BLVD 6400 WEST BLVD  , Vancouver, BC, Canada, Vancouver, BC, Canada, Vancouver, BC, Canada",49.2280402,-123.1554123,2,49.2284959425035,-123.155217826539
"114","Theft From Auto Under $5000",2009,1,"1600 W 8TH AVE","1600 W 8TH AVE 1600 W 8TH AVE  , Vancouver, BC, Canada, Vancouver, BC, Canada, Vancouver, BC, Canada",49.2644251,-123.1412134,2,49.2645432651567,-123.141017379441
"115","Theft From Auto Under $5000",2009,1,"6400 WEST BLVD","6400 WEST BLVD 6400 WEST BLVD  , Vancouver, BC, Canada, Vancouver, BC, Canada, Vancouver, BC, Canada",49.2280402,-123.1554123,2,49.2281892260975,-123.155123564488
"116","Theft From Auto Under $5000",2009,1,"1400 W 15TH AVE","1400 W 15TH AVE 1400 W 15TH AVE  , Vancouver, BC, Canada, Vancouver, BC, Canada, Vancouver, BC, Canada",49.2577951,-123.136497,2,49.2582062872402,-123.136134105989
"117","Theft From Auto Under $5000",2009,1,"1400 E 4TH AVE","1400 E 4TH AVE 1400 E 4TH AVE  , Vancouver, BC, Canada, Vancouver, BC, Canada, Vancouver, BC, Canada",49.2667932,-123.0754276,2,49.266965680883,-123.075308977142
"118","Theft From Auto Under $5000",2009,1,"8600 OAK ST","8600 OAK ST 8600 OAK ST  , Vancouver, BC, Canada, Vancouver, BC, Canada, Vancouver, BC, Canada",49.2082824,-123.130074,2,49.2087796075489,-123.12979561284
"119","Theft From Auto Under $5000",2009,1,"900 RICHARDS ST","900 RICHARDS ST 900 RICHARDS ST  , Vancouver, BC, Canada, Vancouver, BC, Canada, Vancouver, BC, Canada",49.278799,-123.1195525,2,49.2791064923573,-123.119201305088
"120","Theft From Auto Under $5000",2009,1,"900 HOMER ST","900 HOMER ST 900 HOMER ST  , Vancouver, BC, Canada, Vancouver, BC, Canada, Vancouver, BC, Canada",49.2781601,-123.1185532,2,49.2782969032971,-123.118414225956
"121","Theft From Auto Under $5000",2009,1,"1200 HOMER ST","1200 HOMER ST 1200 HOMER ST  , Vancouver, BC, Canada, Vancouver, BC, Canada, Vancouver, BC, Canada",49.2750389,-123.1233824,2,49.2753496311186,-123.122963858241
"122","Theft From Auto Under $5000",2009,1,"HOWE ST / SMITHE ST","HOWE ST / SMITHE ST HOWE ST / SMITHE ST  , Vancouver, BC, Canada, Vancouver, BC, Canada, Vancouver, BC, Canada",49.28259,-123.12488,2,49.2828659226005,-123.124391708545
"123","Theft From Auto Under $5000",2009,1,"8700 FREMLIN ST","8700 FREMLIN ST 8700 FREMLIN ST  , Vancouver, BC, Canada, Vancouver, BC, Canada, Vancouver, BC, Canada",49.2067431,-123.1273449,2,49.207242500593,-123.126925573213
"124","Theft From Auto Under $5000",2009,1,"1700 ROBSON ST","1700 ROBSON ST 1700 ROBSON ST  , Vancouver, BC, Canada, Vancouver, BC, Canada, Vancouver, BC, Canada",49.290456,-123.1341308,2,49.2907632497432,-123.133732891757
"125","Theft From Auto Under $5000",2009,1,"8700 FREMLIN ST","8700 FREMLIN ST 8700 FREMLIN ST  , Vancouver, BC, Canada, Vancouver, BC, Canada, Vancouver, BC, Canada",49.2067431,-123.1273449,2,49.2069441296266,-123.126881716071
"126","Theft From Auto Under $5000",2009,1,"700 GREAT NORTHERN WAY","700 GREAT NORTHERN WAY 700 GREAT NORTHERN WAY  , Vancouver, BC, Canada, Vancouver, BC, Canada, Vancouver, BC, Canada",49.2665814,-123.0893036,2,49.2670536572338,-123.088818471781
"127","Theft From Auto Under $5000",2009,1,"CARRALL ST / E0PO BLVD","CARRALL ST / E0PO BLVD CARRALL ST / E0PO BLVD  , Vancouver, BC, Canada, Vancouver, BC, Canada, Vancouver, BC, Canada",49.27929,-123.10441,2,49.2795659883729,-123.104025746842
"128","Theft From Auto Under $5000",2009,1,"400 W 40TH AVE","400 W 40TH AVE 400 W 40TH AVE  , Vancouver, BC, Canada, Vancouver, BC, Canada, Vancouver, BC, Canada",49.2342952,-123.113577,2,49.2344083224044,-123.113299814154
"129","Theft From Auto Under $5000",2009,1,"1600 W 8TH AVE","1600 W 8TH AVE 1600 W 8TH AVE  , Vancouver, BC, Canada, Vancouver, BC, Canada, Vancouver, BC, Canada",49.2644251,-123.1412134,2,49.264739078555,-123.14100632464
"130","Theft From Auto Under $5000",2009,1,"2800 E 23RD AVE","2800 E 23RD AVE 2800 E 23RD AVE  , Vancouver, BC, Canada, Vancouver, BC, Canada, Vancouver, BC, Canada",49.2495651,-123.046854,2,49.2498893131175,-123.046581036734
"131","Theft From Auto Under $5000",2009,1,"BLENHEIM ST / W BROADWAY AVE","BLENHEIM ST / W BROADWAY AVE BLENHEIM ST / W BROADWAY AVE  , Vancouver, BC, Canada, Vancouver, BC, Canada, Vancouver, BC, Canada",49.26055,-123.17797,2,49.2607563355365,-123.177866432364
"132","Theft From Auto Under $5000",2009,1,"8600 HUDSON ST","8600 HUDSON ST 8600 HUDSON ST  , Vancouver, BC, Canada, Vancouver, BC, Canada, Vancouver, BC, Canada",49.2083635,-123.1343539,2,49.2086305430488,-123.133993557008
"133","Theft From Auto Under $5000",2009,1,"BURRARD ST / W 13TH AVE","BURRARD ST / W 13TH AVE BURRARD ST / W 13TH AVE  , Vancouver, BC, Canada, Vancouver, BC, Canada, Vancouver, BC, Canada",49.27532,-123.13745,2,49.275667988388,-123.137315251405
"134","Theft From Auto Under $5000",2009,1,"900 HOMER ST","900 HOMER ST 900 HOMER ST  , Vancouver, BC, Canada, Vancouver, BC, Canada, Vancouver, BC, Canada",49.2781601,-123.1185532,2,49.2784341837956,-123.118260933089
"135","Theft From Auto Under $5000",2009,1,"2100 W 46TH AVE","2100 W 46TH AVE 2100 W 46TH AVE  , Vancouver, BC, Canada, Vancouver, BC, Canada, Vancouver, BC, Canada",49.2297251,-123.1559601,2,49.2300110690401,-123.155724089098
"136","Theft From Auto Under $5000",2009,1,"8700 FREMLIN ST","8700 FREMLIN ST 8700 FREMLIN ST  , Vancouver, BC, Canada, Vancouver, BC, Canada, Vancouver, BC, Canada",49.2067431,-123.1273449,2,49.2068560695391,-123.126990055813
"137","Theft From Auto Under $5000",2009,1,"8600 HUDSON ST","8600 HUDSON ST 8600 HUDSON ST  , Vancouver, BC, Canada, Vancouver, BC, Canada, Vancouver, BC, Canada",49.2083635,-123.1343539,2,49.2085399607165,-123.133993912604
"138","Theft From Auto Under $5000",2009,1,"400 SEYMOUR ST","400 SEYMOUR ST 400 SEYMOUR ST  , Vancouver, BC, Canada, Vancouver, BC, Canada, Vancouver, BC, Canada",49.2844743,-123.1129097,2,49.2847411736783,-123.112529772494
"139","Theft From Auto Under $5000",2009,1,"1400 W 7TH AVE","1400 W 7TH AVE 1400 W 7TH AVE  , Vancouver, BC, Canada, Vancouver, BC, Canada, Vancouver, BC, Canada",49.2651751,-123.1362206,2,49.2655406787032,-123.135791103999
"140","Theft From Auto Under $5000",2009,1,"900 HOMER ST","900 HOMER ST 900 HOMER ST  , Vancouver, BC, Canada, Vancouver, BC, Canada, Vancouver, BC, Canada",49.2781601,-123.1185532,2,49.2783411777683,-123.118207989934
"141","Theft From Auto Under $5000",2009,1,"1600 W 8TH AVE","1600 W 8TH AVE 1600 W 8TH AVE  , Vancouver, BC, Canada, Vancouver, BC, Canada, Vancouver, BC, Canada",49.2644251,-123.1412134,2,49.2645356228325,-123.141072726536
"142","Theft From Auto Under $5000",2009,1,"W 22ND AVE / WALLACE ST","W 22ND AVE / WALLACE ST W 22ND AVE / WALLACE ST  , Vancouver, BC, Canada, Vancouver, BC, Canada, Vancouver, BC, Canada",49.23754,-123.19093,2,49.2376479601958,-123.190589015032
"143","Theft From Auto Under $5000",2009,1,"1600 W 8TH AVE","1600 W 8TH AVE 1600 W 8TH AVE  , Vancouver, BC, Canada, Vancouver, BC, Canada, Vancouver, BC, Canada",49.2644251,-123.1412134,2,49.2646167102123,-123.140719391091
"144","Theft From Auto Under $5000",2009,1,"1600 W 8TH AVE","1600 W 8TH AVE 1600 W 8TH AVE  , Vancouver, BC, Canada, Vancouver, BC, Canada, Vancouver, BC, Canada",49.2644251,-123.1412134,2,49.2649143526431,-123.14089511144
"145","Theft From Auto Under $5000",2009,1,"1000 MAIN ST","1000 MAIN ST 1000 MAIN ST  , Vancouver, BC, Canada, Vancouver, BC, Canada, Vancouver, BC, Canada",49.2754126,-123.0997038,2,49.2756009809205,-123.099417829382
"146","Theft From Auto Under $5000",2009,1,"2000 W 47TH AVE","2000 W 47TH AVE 2000 W 47TH AVE  , Vancouver, BC, Canada, Vancouver, BC, Canada, Vancouver, BC, Canada",49.2288151,-123.1524706,2,49.228934401035,-123.152298185919
"147","Theft From Auto Under $5000",2009,1,"1100 GILFORD ST","1100 GILFORD ST 1100 GILFORD ST  , Vancouver, BC, Canada, Vancouver, BC, Canada, Vancouver, BC, Canada",49.2893064,-123.1416274,2,49.2896276698285,-123.141493586426
"148","Theft From Auto Under $5000",2009,1,"900 BEACH AVE","900 BEACH AVE 900 BEACH AVE  , Vancouver, BC, Canada, Vancouver, BC, Canada, Vancouver, BC, Canada",49.2753659,-123.1330103,2,49.2756297856539,-123.132829683617
"149","Theft From Auto Under $5000",2009,1,"3300 FIELDSTONE AVE","3300 FIELDSTONE AVE 3300 FIELDSTONE AVE  , Vancouver, BC, Canada, Vancouver, BC, Canada, Vancouver, BC, Canada",49.2081548,-123.0355282,2,49.2085179646234,-123.035406931108
"150","Theft From Auto Under $5000",2009,1,"2100 W 46TH AVE","2100 W 46TH AVE 2100 W 46TH AVE  , Vancouver, BC, Canada, Vancouver, BC, Canada, Vancouver, BC, Canada",49.2297251,-123.1559601,2,49.2300178841496,-123.15552216946
"151","Theft From Auto Under $5000",2009,1,"900 BEACH AVE","900 BEACH AVE 900 BEACH AVE  , Vancouver, BC, Canada, Vancouver, BC, Canada, Vancouver, BC, Canada",49.2753659,-123.1330103,2,49.2756393070117,-123.132593955611
"152","Theft From Auto Under $5000",2009,1,"600 W 41ST AVE","600 W 41ST AVE 600 W 41ST AVE  , Vancouver, BC, Canada, Vancouver, BC, Canada, Vancouver, BC, Canada",49.2334308,-123.1170049,2,49.2336362364852,-123.116678845357
"153","Theft From Auto Under $5000",2009,1,"800 DENMAN ST","800 DENMAN ST 800 DENMAN ST  , Vancouver, BC, Canada, Vancouver, BC, Canada, Vancouver, BC, Canada",49.2912403,-123.1355415,2,49.2916632259693,-123.135264690454
"154","Theft From Auto Under $5000",2009,1,"ROBSON ST / THURLOW ST","ROBSON ST / THURLOW ST ROBSON ST / THURLOW ST  , Vancouver, BC, Canada, Vancouver, BC, Canada, Vancouver, BC, Canada",49.28164,-123.12931,2,49.2817709212794,-123.128937446141
"155","Theft From Auto Under $5000",2009,1,"1000 W BROADWAY AVE","1000 W BROADWAY AVE 1000 W BROADWAY AVE  , Vancouver, BC, Canada, Vancouver, BC, Canada, Vancouver, BC, Canada",49.2632851,-123.12681,2,49.2635106537527,-123.12655932136
"156","Theft From Auto Under $5000",2009,1,"700 THURLOW ST","700 THURLOW ST 700 THURLOW ST  , Vancouver, BC, Canada, Vancouver, BC, Canada, Vancouver, BC, Canada",49.2854289,-123.1233068,2,49.2858242937446,-123.123011353685
"157","Theft From Auto Under $5000",2009,1,"1000 W BROADWAY AVE","1000 W BROADWAY AVE 1000 W BROADWAY AVE  , Vancouver, BC, Canada, Vancouver, BC, Canada, Vancouver, BC, Canada",49.2632851,-123.12681,2,49.2635345048994,-123.12636692641
"158","Theft From Auto Under $5000",2009,1,"800 BUTE ST","800 BUTE ST 800 BUTE ST  , Vancouver, BC, Canada, Vancouver, BC, Canada, Vancouver, BC, Canada",49.2857826,-123.1270719,2,49.2862779890967,-123.126583127229
"159","Theft From Auto Under $5000",2009,1,"E HASTINGS ST / NANAIMO ST","E HASTINGS ST / NANAIMO ST E HASTINGS ST / NANAIMO ST  , Vancouver, BC, Canada, Vancouver, BC, Canada, Vancouver, BC, Canada",49.27716,-123.05658,2,49.2775565521988,-123.05619192216
"160","Theft From Auto Under $5000",2009,1,"5400 VINE ST","5400 VINE ST 5400 VINE ST  , Vancouver, BC, Canada, Vancouver, BC, Canada, Vancouver, BC, Canada",49.2371885,-123.1595889,2,49.237647332987,-123.159097963949
"161","Theft From Auto Under $5000",2009,1,"8700 OSLER ST","8700 OSLER ST 8700 OSLER ST  , Vancouver, BC, Canada, Vancouver, BC, Canada, Vancouver, BC, Canada",49.20681,-123.1315651,2,49.2069519334983,-123.131083310977
"162","Theft From Auto Under $5000",2009,1,"3400 PRICE ST","3400 PRICE ST 3400 PRICE ST  , Vancouver, BC, Canada, Vancouver, BC, Canada, Vancouver, BC, Canada",49.2427466,-123.0312703,2,49.2430991520711,-123.030915832663
"163","Theft From Auto Under $5000",2009,1,"1800 ROBSON ST","1800 ROBSON ST 1800 ROBSON ST  , Vancouver, BC, Canada, Vancouver, BC, Canada, Vancouver, BC, Canada",49.2914454,-123.1356785,2,49.2918496111633,-123.135275809581
"164","Theft From Auto Under $5000",2009,1,"3200 ADANAC ST","3200 ADANAC ST 3200 ADANAC ST  , Vancouver, BC, Canada, Vancouver, BC, Canada, Vancouver, BC, Canada",49.2773051,-123.0360893,2,49.2774503766988,-123.035677962564
"165","Theft From Auto Under $5000",2009,1,"2500 BROCK ST","2500 BROCK ST 2500 BROCK ST  , Vancouver, BC, Canada, Vancouver, BC, Canada, Vancouver, BC, Canada",49.2435974,-123.0552186,2,49.2439684692605,-123.054853838571
"166","Theft From Auto Under $5000",2009,1,"1400 QUEBEC ST","1400 QUEBEC ST 1400 QUEBEC ST  , Vancouver, BC, Canada, Vancouver, BC, Canada, Vancouver, BC, Canada",49.2736051,-123.1019349,2,49.2739644727067,-123.101664793695
"167","Theft From Auto Under $5000",2009,1,"8600 OAK ST","8600 OAK ST 8600 OAK ST  , Vancouver, BC, Canada, Vancouver, BC, Canada, Vancouver, BC, Canada",49.2082824,-123.130074,2,49.2086965527286,-123.129722568412
"168","Theft From Auto Under $5000",2009,1,"3100 W 43RD AVE","3100 W 43RD AVE 3100 W 43RD AVE  , Vancouver, BC, Canada, Vancouver, BC, Canada, Vancouver, BC, Canada",49.232674,-123.1742648,2,49.2330149936057,-123.174040505974
"169","Theft From Auto Under $5000",2009,1,"1900 W KING EDWARD AVE","1900 W KING EDWARD AVE 1900 W KING EDWARD AVE  , Vancouver, BC, Canada, Vancouver, BC, Canada, Vancouver, BC, Canada",49.2494574,-123.1489779,2,49.2496665729789,-123.148521038553
"170","Theft From Auto Under $5000",2009,1,"100 W CORDOVA ST","100 W CORDOVA ST 100 W CORDOVA ST  , Vancouver, BC, Canada, Vancouver, BC, Canada, Vancouver, BC, Canada",49.2828258,-123.1070009,2,49.2830980970445,-123.10687558924
"171","Theft From Auto Under $5000",2009,1,"2400 W BROADWAY AVE","2400 W BROADWAY AVE 2400 W BROADWAY AVE  , Vancouver, BC, Canada, Vancouver, BC, Canada, Vancouver, BC, Canada",49.2638151,-123.1602527,2,49.264062034211,-123.159809661146
"172","Theft From Auto Under $5000",2009,1,"1000 E 61ST AVE","1000 E 61ST AVE 1000 E 61ST AVE  , Vancouver, BC, Canada, Vancouver, BC, Canada, Vancouver, BC, Canada",49.2146051,-123.085424,2,49.2147105422002,-123.085069599019
"173","Theft From Auto Under $5000",2009,1,"3300 HEATHER ST","3300 HEATHER ST 3300 HEATHER ST  , Vancouver, BC, Canada, Vancouver, BC, Canada, Vancouver, BC, Canada",49.2559618,-123.1199451,2,49.2562315861607,-123.119599082644
"174","Theft From Auto Under $5000",2009,1,"900 SMITHE ST","900 SMITHE ST 900 SMITHE ST  , Vancouver, BC, Canada, Vancouver, BC, Canada, Vancouver, BC, Canada",49.2815165,-123.1235927,2,49.2818679352268,-123.123483042669
"175","Theft From Auto Under $5000",2009,1,"700 W GEORGIA ST","700 W GEORGIA ST 700 W GEORGIA ST  , Vancouver, BC, Canada, Vancouver, BC, Canada, Vancouver, BC, Canada",49.28276,-123.11871,2,49.2831080345697,-123.118479418831
"176","Theft From Auto Under $5000",2009,1,"600 E 7TH AVE","600 E 7TH AVE 600 E 7TH AVE  , Vancouver, BC, Canada, Vancouver, BC, Canada, Vancouver, BC, Canada",49.2642548,-123.0907873,2,49.2644004241366,-123.090631778035
"177","Theft From Auto Under $5000",2009,1,"700 W 15TH AVE","700 W 15TH AVE 700 W 15TH AVE  , Vancouver, BC, Canada, Vancouver, BC, Canada, Vancouver, BC, Canada",49.2575851,-123.1202407,2,49.2576865567461,-123.119935087872
"178","Theft From Auto Under $5000",2009,1,"700 GREAT NORTHERN WAY","700 GREAT NORTHERN WAY 700 GREAT NORTHERN WAY  , Vancouver, BC, Canada, Vancouver, BC, Canada, Vancouver, BC, Canada",49.2665814,-123.0893036,2,49.2668072358361,-123.089069648307
"179","Theft From Auto Under $5000",2009,1,"1600 W 8TH AVE","1600 W 8TH AVE 1600 W 8TH AVE  , Vancouver, BC, Canada, Vancouver, BC, Canada, Vancouver, BC, Canada",49.2644251,-123.1412134,2,49.2647583875047,-123.140958412503
"180","Theft From Auto Under $5000",2009,1,"7900 FRENCH ST","7900 FRENCH ST 7900 FRENCH ST  , Vancouver, BC, Canada, Vancouver, BC, Canada, Vancouver, BC, Canada",49.2143013,-123.1387735,2,49.2144729611964,-123.138518833795
"181","Theft From Auto Under $5000",2009,1,"1300 E 47TH AVE","1300 E 47TH AVE 1300 E 47TH AVE  , Vancouver, BC, Canada, Vancouver, BC, Canada, Vancouver, BC, Canada",49.2276049,-123.0797213,2,49.2280159768701,-123.079502752557
"182","Theft From Auto Under $5000",2009,1,"1600 W 8TH AVE","1600 W 8TH AVE 1600 W 8TH AVE  , Vancouver, BC, Canada, Vancouver, BC, Canada, Vancouver, BC, Canada",49.2644251,-123.1412134,2,49.2648628016606,-123.140965478677
"183","Theft From Auto Under $5000",2009,1,"2900 LAUREL ST","2900 LAUREL ST 2900 LAUREL ST  , Vancouver, BC, Canada, Vancouver, BC, Canada, Vancouver, BC, Canada",49.2594746,-123.1240645,2,49.2596494659757,-123.123659235301
"184","Theft From Auto Under $5000",2009,1,"1400 E 1ST AVE","1400 E 1ST AVE 1400 E 1ST AVE  , Vancouver, BC, Canada, Vancouver, BC, Canada, Vancouver, BC, Canada",49.2695051,-123.075171,2,49.2698164714678,-123.074871568501
"185","Theft From Auto Under $5000",2009,1,"800 BURRARD ST","800 BURRARD ST 800 BURRARD ST  , Vancouver, BC, Canada, Vancouver, BC, Canada, Vancouver, BC, Canada",49.2827399,-123.12297,2,49.2828782745779,-123.122709250321
"186","Theft From Auto Under $5000",2009,1,"800 BURRARD ST","800 BURRARD ST 800 BURRARD ST  , Vancouver, BC, Canada, Vancouver, BC, Canada, Vancouver, BC, Canada",49.2827399,-123.12297,2,49.2832033008867,-123.122630280457
"187","Theft From Auto Under $5000",2009,1,"1100 ROBSON ST","1100 ROBSON ST 1100 ROBSON ST  , Vancouver, BC, Canada, Vancouver, BC, Canada, Vancouver, BC, Canada",49.28457,-123.12536,2,49.285028318965,-123.125116091716
"188","Theft From Auto Under $5000",2009,1,"700 W 15TH AVE","700 W 15TH AVE 700 W 15TH AVE  , Vancouver, BC, Canada, Vancouver, BC, Canada, Vancouver, BC, Canada",49.2575851,-123.1202407,2,49.2578216157161,-123.120082991621
"189","Theft From Auto Under $5000",2009,1,"800 DENMAN ST","800 DENMAN ST 800 DENMAN ST  , Vancouver, BC, Canada, Vancouver, BC, Canada, Vancouver, BC, Canada",49.2912403,-123.1355415,2,49.2915829954912,-123.135239652968
"190","Theft From Auto Under $5000",2009,1,"800 BUTE ST","800 BUTE ST 800 BUTE ST  , Vancouver, BC, Canada, Vancouver, BC, Canada, Vancouver, BC, Canada",49.2857826,-123.1270719,2,49.2860921603279,-123.126688073861
"191","Theft From Auto Under $5000",2009,1,"ROBSON ST / SEYMOUR ST","ROBSON ST / SEYMOUR ST ROBSON ST / SEYMOUR ST  , Vancouver, BC, Canada, Vancouver, BC, Canada, Vancouver, BC, Canada",49.28559,-123.12634,2,49.2859004107476,-123.126181324551
"192","Theft From Auto Under $5000",2009,1,"800 AVISON WAY","800 AVISON WAY 800 AVISON WAY  , Vancouver, BC, Canada, Vancouver, BC, Canada, Vancouver, BC, Canada",49.2979379,-123.1311265,2,49.2980690648504,-123.130771187956
"193","Theft From Auto Under $5000",2009,1,"4400 W 10TH AVE","4400 W 10TH AVE 4400 W 10TH AVE  , Vancouver, BC, Canada, Vancouver, BC, Canada, Vancouver, BC, Canada",49.2636551,-123.2062532,2,49.2640146031723,-123.205854430622
"194","Theft From Auto Under $5000",2009,1,"100 KEEFER PL","100 KEEFER PL 100 KEEFER PL  , Vancouver, BC, Canada, Vancouver, BC, Canada, Vancouver, BC, Canada",49.279606,-123.107833,2,49.2797069843438,-123.107612551752
"195","Theft From Auto Under $5000",2009,1,"2700 GUELPH ST","2700 GUELPH ST 2700 GUELPH ST  , Vancouver, BC, Canada, Vancouver, BC, Canada, Vancouver, BC, Canada",49.2605171,-123.0948351,2,49.2608383408481,-123.094397267468
"196","Theft From Auto Under $5000",2009,1,"BUTE ST / ROBSON ST","BUTE ST / ROBSON ST BUTE ST / ROBSON ST  , Vancouver, BC, Canada, Vancouver, BC, Canada, Vancouver, BC, Canada",49.28559,-123.12634,2,49.2859812016578,-123.126223458648
"197","Theft From Auto Under $5000",2009,1,"900 HORNBY ST","900 HORNBY ST 900 HORNBY ST  , Vancouver, BC, Canada, Vancouver, BC, Canada, Vancouver, BC, Canada",49.2813167,-123.1234445,2,49.2814390079953,-123.123295165491
"198","Theft From Auto Under $5000",2009,1,"800 POWELL ST","800 POWELL ST 800 POWELL ST  , Vancouver, BC, Canada, Vancouver, BC, Canada, Vancouver, BC, Canada",49.2828251,-123.086837,2,49.2832380289466,-123.086543685328
"199","Theft From Auto Under $5000",2009,1,"1400 CREEKSIDE DR","1400 CREEKSIDE DR 1400 CREEKSIDE DR  , Vancouver, BC, Canada, Vancouver, BC, Canada, Vancouver, BC, Canada",49.2734485,-123.1403079,2,49.2736367709573,-123.139970371296
"200","Theft From Auto Under $5000",2009,1,"2400 W BROADWAY AVE","2400 W BROADWAY AVE 2400 W BROADWAY AVE  , Vancouver, BC, Canada, Vancouver, BC, Canada, Vancouver, BC, Canada",49.2638151,-123.1602527,2,49.2641431351662,-123.160003538913
"201","Theft From Auto Under $5000",2009,1,"2400 W BROADWAY AVE","2400 W BROADWAY AVE 2400 W BROADWAY AVE  , Vancouver, BC, Canada, Vancouver, BC, Canada, Vancouver, BC, Canada",49.2638151,-123.1602527,2,49.2640758918394,-123.159786478573
"202","Theft From Auto Under $5000",2009,1,"2400 W BROADWAY AVE","2400 W BROADWAY AVE 2400 W BROADWAY AVE  , Vancouver, BC, Canada, Vancouver, BC, Canada, Vancouver, BC, Canada",49.2638151,-123.1602527,2,49.2639461775332,-123.159874828021
"203","Theft From Auto Under $5000",2009,1,"100 W BROADWAY AVE","100 W BROADWAY AVE 100 W BROADWAY AVE  , Vancouver, BC, Canada, Vancouver, BC, Canada, Vancouver, BC, Canada",49.2629351,-123.1070431,2,49.2630571928689,-123.106832373651
"204","Theft From Auto Under $5000",2009,1,"900 W CORDOVA ST","900 W CORDOVA ST 900 W CORDOVA ST  , Vancouver, BC, Canada, Vancouver, BC, Canada, Vancouver, BC, Canada",49.2871601,-123.1151302,2,49.2873107714618,-123.114653986346
"205","Theft From Auto Under $5000",2009,1,"COLUMBIA ST / E PENDER ST","COLUMBIA ST / E PENDER ST COLUMBIA ST / E PENDER ST  , Vancouver, BC, Canada, Vancouver, BC, Canada, Vancouver, BC, Canada",49.2804,-123.10085,2,49.2807591993349,-123.100692258435
"206","Theft From Auto Under $5000",2009,1,"800 AVISON WAY","800 AVISON WAY 800 AVISON WAY  , Vancouver, BC, Canada, Vancouver, BC, Canada, Vancouver, BC, Canada",49.2979379,-123.1311265,2,49.2982695784495,-123.130920891121
"207","Theft From Auto Under $5000",2009,1,"2400 W BROADWAY AVE","2400 W BROADWAY AVE 2400 W BROADWAY AVE  , Vancouver, BC, Canada, Vancouver, BC, Canada, Vancouver, BC, Canada",49.2638151,-123.1602527,2,49.2639509086502,-123.159886982769
"208","Theft From Auto Under $5000",2009,1,"500 RICHARDS ST","500 RICHARDS ST 500 RICHARDS ST  , Vancouver, BC, Canada, Vancouver, BC, Canada, Vancouver, BC, Canada",49.2831573,-123.1129627,2,49.2833414829913,-123.112552074009
"209","Theft From Auto Under $5000",2009,1,"1000 RICHARDS ST","1000 RICHARDS ST 1000 RICHARDS ST  , Vancouver, BC, Canada, Vancouver, BC, Canada, Vancouver, BC, Canada",49.277729,-123.1211458,2,49.2780751487645,-123.120846032769
"210","Theft From Auto Under $5000",2009,1,"1500 W 6TH AVE","1500 W 6TH AVE 1500 W 6TH AVE  , Vancouver, BC, Canada, Vancouver, BC, Canada, Vancouver, BC, Canada",49.2660551,-123.1384746,2,49.2663461497021,-123.138144005179
"211","Theft From Auto Under $5000",2009,1,"BALSAM ST / W BROADWAY AVE","BALSAM ST / W BROADWAY AVE BALSAM ST / W BROADWAY AVE  , Vancouver, BC, Canada, Vancouver, BC, Canada, Vancouver, BC, Canada",49.26332,-123.12072,2,49.263459230906,-123.120523434315
"212","Theft From Auto Under $5000",2009,1,"3600 SKANA DR","3600 SKANA DR 3600 SKANA DR  , Vancouver, BC, Canada, Vancouver, BC, Canada, Vancouver, BC, Canada",49.2085963,-123.0266731,2,49.2090871935776,-123.026190850354
"213","Theft From Auto Under $5000",2009,1,"1400 ROBSON ST","1400 ROBSON ST 1400 ROBSON ST  , Vancouver, BC, Canada, Vancouver, BC, Canada, Vancouver, BC, Canada",49.28807,-123.13081,2,49.2884389524524,-123.13066236081
"214","Theft From Auto Under $5000",2009,1,"3000 KASLO ST","3000 KASLO ST 3000 KASLO ST  , Vancouver, BC, Canada, Vancouver, BC, Canada, Vancouver, BC, Canada",49.2571024,-123.0469051,2,49.2575760881357,-123.046477048165
"215","Theft From Auto Under $5000",2009,1,"1600 W 1ST AVE","1600 W 1ST AVE 1600 W 1ST AVE  , Vancouver, BC, Canada, Vancouver, BC, Canada, Vancouver, BC, Canada",49.2704418,-123.1413843,2,49.2706238524578,-123.141190686344
"216","Theft From Auto Under $5000",2009,1,"2400 W BROADWAY AVE","2400 W BROADWAY AVE 2400 W BROADWAY AVE  , Vancouver, BC, Canada, Vancouver, BC, Canada, Vancouver, BC, Canada",49.2638151,-123.1602527,2,49.2641547616255,-123.159953791573
"217","Theft From Auto Under $5000",2009,1,"2400 W BROADWAY AVE","2400 W BROADWAY AVE 2400 W BROADWAY AVE  , Vancouver, BC, Canada, Vancouver, BC, Canada, Vancouver, BC, Canada",49.2638151,-123.1602527,2,49.2640414230454,-123.160026501151
"218","Theft From Auto Under $5000",2009,1,"3400 INVERNESS ST","3400 INVERNESS ST 3400 INVERNESS ST  , Vancouver, BC, Canada, Vancouver, BC, Canada, Vancouver, BC, Canada",49.25432,-123.07951,2,49.2547753771931,-123.079074880301
"219","Theft From Auto Under $5000",2009,1,"1500 W 3RD AVE","1500 W 3RD AVE 1500 W 3RD AVE  , Vancouver, BC, Canada, Vancouver, BC, Canada, Vancouver, BC, Canada",49.2686355,-123.1391054,2,49.2688663336956,-123.13887650524
"220","Theft From Auto Under $5000",2009,1,"1600 W 1ST AVE","1600 W 1ST AVE 1600 W 1ST AVE  , Vancouver, BC, Canada, Vancouver, BC, Canada, Vancouver, BC, Canada",49.2704418,-123.1413843,2,49.2707000744558,-123.140938992619
"221","Theft From Auto Under $5000",2009,1,"1600 W 1ST AVE","1600 W 1ST AVE 1600 W 1ST AVE  , Vancouver, BC, Canada, Vancouver, BC, Canada, Vancouver, BC, Canada",49.2704418,-123.1413843,2,49.2709307686818,-123.14127295969
"222","Theft From Auto Under $5000",2009,1,"2900 OAK ST","2900 OAK ST 2900 OAK ST  , Vancouver, BC, Canada, Vancouver, BC, Canada, Vancouver, BC, Canada",49.2594998,-123.1265363,2,49.2599867307817,-123.126086150589
"223","Theft From Auto Under $5000",2009,1,"2400 W BROADWAY AVE","2400 W BROADWAY AVE 2400 W BROADWAY AVE  , Vancouver, BC, Canada, Vancouver, BC, Canada, Vancouver, BC, Canada",49.2638151,-123.1602527,2,49.2639253183966,-123.160076535279
"224","Theft From Auto Under $5000",2009,1,"1400 BARCLAY ST","1400 BARCLAY ST 1400 BARCLAY ST  , Vancouver, BC, Canada, Vancouver, BC, Canada, Vancouver, BC, Canada",49.2864755,-123.1323094,2,49.2867083627417,-123.132001566815
"225","Theft From Auto Under $5000",2009,1,"HAMILTON ST / ROBSON ST","HAMILTON ST / ROBSON ST HAMILTON ST / ROBSON ST  , Vancouver, BC, Canada, Vancouver, BC, Canada, Vancouver, BC, Canada",49.28559,-123.12634,2,49.2860140185322,-123.125920879569
"226","Theft From Auto Under $5000",2009,1,"1400 QUEBEC ST","1400 QUEBEC ST 1400 QUEBEC ST  , Vancouver, BC, Canada, Vancouver, BC, Canada, Vancouver, BC, Canada",49.2736051,-123.1019349,2,49.2740376839493,-123.101450864411
"227","Theft From Auto Under $5000",2009,1,"1000 LILLOOET ST","1000 LILLOOET ST 1000 LILLOOET ST  , Vancouver, BC, Canada, Vancouver, BC, Canada, Vancouver, BC, Canada",49.2752406,-123.0387451,2,49.2756587834142,-123.038275653267
"228","Theft From Auto Under $5000",2009,1,"7800 ANGUS DR","7800 ANGUS DR 7800 ANGUS DR  , Vancouver, BC, Canada, Vancouver, BC, Canada, Vancouver, BC, Canada",49.2148312,-123.1482183,2,49.2151199314995,-123.148036779122
"229","Theft From Auto Under $5000",2009,1,"2400 W BROADWAY AVE","2400 W BROADWAY AVE 2400 W BROADWAY AVE  , Vancouver, BC, Canada, Vancouver, BC, Canada, Vancouver, BC, Canada",49.2638151,-123.1602527,2,49.2641048006272,-123.160038923623
"230","Theft From Auto Under $5000",2009,1,"800 W 59TH AVE","800 W 59TH AVE 800 W 59TH AVE  , Vancouver, BC, Canada, Vancouver, BC, Canada, Vancouver, BC, Canada",49.2169051,-123.124075,2,49.2173858081693,-123.123748650747
"231","Theft From Auto Under $5000",2009,1,"7100 TISDALL ST","7100 TISDALL ST 7100 TISDALL ST  , Vancouver, BC, Canada, Vancouver, BC, Canada, Vancouver, BC, Canada",49.2215613,-123.1208106,2,49.2217443307505,-123.120410041584
"232","Theft From Auto Under $5000",2009,1,"6200 WINDSOR ST","6200 WINDSOR ST 6200 WINDSOR ST  , Vancouver, BC, Canada, Vancouver, BC, Canada, Vancouver, BC, Canada",49.2281999,-123.0849303,2,49.2286998170771,-123.084675766828
"233","Theft From Auto Under $5000",2009,1,"3400 E 2ND AVE","3400 E 2ND AVE 3400 E 2ND AVE  , Vancouver, BC, Canada, Vancouver, BC, Canada, Vancouver, BC, Canada",49.2683151,-123.0307796,2,49.268532200171,-123.030672985997
"234","Theft From Auto Under $5000",2009,1,"100 E0PO BLVD","100 E0PO BLVD 100 E0PO BLVD  , Vancouver, BC, Canada, Vancouver, BC, Canada, Vancouver, BC, Canada",49.25439,-123.15255,2,49.2547284717036,-123.152198035701
"235","Theft From Auto Under $5000",2009,1,"900 SEYMOUR ST","900 SEYMOUR ST 900 SEYMOUR ST  , Vancouver, BC, Canada, Vancouver, BC, Canada, Vancouver, BC, Canada",49.27925,-123.12051,2,49.2795843461816,-123.120093673169
"236","Theft From Auto Under $5000",2009,1,"1900 E 47TH AVE","1900 E 47TH AVE 1900 E 47TH AVE  , Vancouver, BC, Canada, Vancouver, BC, Canada, Vancouver, BC, Canada",49.2275351,-123.0667681,2,49.2279620808027,-123.066511545232
"237","Theft From Auto Under $5000",2009,1,"1400 QUEBEC ST","1400 QUEBEC ST 1400 QUEBEC ST  , Vancouver, BC, Canada, Vancouver, BC, Canada, Vancouver, BC, Canada",49.2736051,-123.1019349,2,49.2738099905604,-123.101809870596
"238","Theft From Auto Under $5000",2009,1,"1200 RICHARDS ST","1200 RICHARDS ST 1200 RICHARDS ST  , Vancouver, BC, Canada, Vancouver, BC, Canada, Vancouver, BC, Canada",49.2756286,-123.1243363,2,49.2759066724732,-123.123902774124
"239","Theft From Auto Under $5000",2009,1,"800 GRIFFITHS WAY","800 GRIFFITHS WAY 800 GRIFFITHS WAY  , Vancouver, BC, Canada, Vancouver, BC, Canada, Vancouver, BC, Canada",49.2779897,-123.1103178,2,49.2782951428154,-123.110043400632
"240","Theft From Auto Under $5000",2009,1,"1100 LAMEYS MILL RD","1100 LAMEYS MILL RD 1100 LAMEYS MILL RD  , Vancouver, BC, Canada, Vancouver, BC, Canada, Vancouver, BC, Canada",49.2662619,-123.1292444,2,49.2664394165451,-123.129030336267
"241","Theft From Auto Under $5000",2009,1,"700 GRANVILLE ST","700 GRANVILLE ST 700 GRANVILLE ST  , Vancouver, BC, Canada, Vancouver, BC, Canada, Vancouver, BC, Canada",49.2822179,-123.1182166,2,49.2826669855244,-123.117977478585
"242","Theft From Auto Under $5000",2009,1,"1200 RICHARDS ST","1200 RICHARDS ST 1200 RICHARDS ST  , Vancouver, BC, Canada, Vancouver, BC, Canada, Vancouver, BC, Canada",49.2756286,-123.1243363,2,49.27602371534,-123.124031587679
"243","Theft From Auto Under $5000",2009,1,"1000 W 14TH AVE","1000 W 14TH AVE 1000 W 14TH AVE  , Vancouver, BC, Canada, Vancouver, BC, Canada, Vancouver, BC, Canada",49.2585951,-123.1269928,2,49.2589095028037,-123.126849377008
"244","Theft From Auto Under $5000",2009,1,"W 41ST AVE / YEW ST","W 41ST AVE / YEW ST W 41ST AVE / YEW ST  , Vancouver, BC, Canada, Vancouver, BC, Canada, Vancouver, BC, Canada",49.23466,-123.15896,2,49.2350118452177,-123.158496293441
"245","Theft From Auto Under $5000",2009,1,"800 BURRARD ST","800 BURRARD ST 800 BURRARD ST  , Vancouver, BC, Canada, Vancouver, BC, Canada, Vancouver, BC, Canada",49.2827399,-123.12297,2,49.2831546548391,-123.122644290874
"246","Theft From Auto Under $5000",2009,1,"5900 INVERNESS ST","5900 INVERNESS ST 5900 INVERNESS ST  , Vancouver, BC, Canada, Vancouver, BC, Canada, Vancouver, BC, Canada",49.2307353,-123.0796146,2,49.2308793082533,-123.079192632442
"247","Theft From Auto Under $5000",2009,1,"2400 W BROADWAY AVE","2400 W BROADWAY AVE 2400 W BROADWAY AVE  , Vancouver, BC, Canada, Vancouver, BC, Canada, Vancouver, BC, Canada",49.2638151,-123.1602527,2,49.2641430046755,-123.15995783093
"248","Theft From Auto Under $5000",2009,1,"100 ALE0ANDER ST","100 ALE0ANDER ST 100 ALE0ANDER ST  , Vancouver, BC, Canada, Vancouver, BC, Canada, Vancouver, BC, Canada",49.26039,-123.11336,2,49.2605195311174,-123.113192860485
"249","Theft From Auto Under $5000",2009,1,"1600 W 7TH AVE","1600 W 7TH AVE 1600 W 7TH AVE  , Vancouver, BC, Canada, Vancouver, BC, Canada, Vancouver, BC, Canada",49.2652751,-123.1411427,2,49.2656701073888,-123.140722717219
"250","Theft From Auto Under $5000",2009,1,"CAMBIE ST / W 12TH AVE","CAMBIE ST / W 12TH AVE CAMBIE ST / W 12TH AVE  , Vancouver, BC, Canada, Vancouver, BC, Canada, Vancouver, BC, Canada",49.27913,-123.11359,2,49.279568787751,-123.113123532647
"251","Theft From Auto Under $5000",2009,1,"CARRALL ST / E CORDOVA ST","CARRALL ST / E CORDOVA ST CARRALL ST / E CORDOVA ST  , Vancouver, BC, Canada, Vancouver, BC, Canada, Vancouver, BC, Canada",49.28215,-123.09175,2,49.2825801635093,-123.0913530436
"252","Theft From Auto Under $5000",2009,1,"1000 MELVILLE ST","1000 MELVILLE ST 1000 MELVILLE ST  , Vancouver, BC, Canada, Vancouver, BC, Canada, Vancouver, BC, Canada",49.2851154,-123.1201991,2,49.2855513792049,-123.119967998796
"253","Theft From Auto Under $5000",2009,1,"E PENDER ST / MAIN ST","E PENDER ST / MAIN ST E PENDER ST / MAIN ST  , Vancouver, BC, Canada, Vancouver, BC, Canada, Vancouver, BC, Canada",49.2804,-123.10085,2,49.2805618367553,-123.100361010897
"254","Theft From Auto Under $5000",2009,1,"MCGEER ST / WELLINGTON AVE","MCGEER ST / WELLINGTON AVE MCGEER ST / WELLINGTON AVE  , Vancouver, BC, Canada, Vancouver, BC, Canada, Vancouver, BC, Canada",49.24107,-123.03259,2,49.2414871157721,-123.0323115244
"255","Theft From Auto Under $5000",2009,1,"1300 BEACH AVE","1300 BEACH AVE 1300 BEACH AVE  , Vancouver, BC, Canada, Vancouver, BC, Canada, Vancouver, BC, Canada",49.2801811,-123.1383227,2,49.2803562138991,-123.137998353512
"256","Theft From Auto Under $5000",2009,1,"1800 W 1ST AVE","1800 W 1ST AVE 1800 W 1ST AVE  , Vancouver, BC, Canada, Vancouver, BC, Canada, Vancouver, BC, Canada",49.2705151,-123.1457142,2,49.270625654444,-123.145598950738
"257","Theft From Auto Under $5000",2009,1,"CAMBIE ST / W HASTINGS ST","CAMBIE ST / W HASTINGS ST CAMBIE ST / W HASTINGS ST  , Vancouver, BC, Canada, Vancouver, BC, Canada, Vancouver, BC, Canada",49.27913,-123.11359,2,49.2793348709061,-123.113476906055
"258","Theft From Auto Under $5000",2009,1,"1500 BURNABY ST","1500 BURNABY ST 1500 BURNABY ST  , Vancouver, BC, Canada, Vancouver, BC, Canada, Vancouver, BC, Canada",49.2837362,-123.1388113,2,49.2838917895564,-123.138465765618
"259","Theft From Auto Under $5000",2009,1,"3000 ADANAC ST","3000 ADANAC ST 3000 ADANAC ST  , Vancouver, BC, Canada, Vancouver, BC, Canada, Vancouver, BC, Canada",49.2773351,-123.0411238,2,49.2778152230192,-123.040773457242
"260","Theft From Auto Under $5000",2009,1,"3500 CLARK DR","3500 CLARK DR 3500 CLARK DR  , Vancouver, BC, Canada, Vancouver, BC, Canada, Vancouver, BC, Canada",49.2534028,-123.0776962,2,49.2535852151201,-123.077216858121
"261","Theft From Auto Under $5000",2009,1,"500 SEYMOUR ST","500 SEYMOUR ST 500 SEYMOUR ST  , Vancouver, BC, Canada, Vancouver, BC, Canada, Vancouver, BC, Canada",49.2837796,-123.113949,2,49.2841503709931,-123.113565946734
"262","Theft From Auto Under $5000",2009,1,"1600 HORNBY ST","1600 HORNBY ST 1600 HORNBY ST  , Vancouver, BC, Canada, Vancouver, BC, Canada, Vancouver, BC, Canada",49.27398,-123.13412,2,49.2743200982409,-123.133902782759
"263","Theft From Auto Under $5000",2009,1,"1400 BARCLAY ST","1400 BARCLAY ST 1400 BARCLAY ST  , Vancouver, BC, Canada, Vancouver, BC, Canada, Vancouver, BC, Canada",49.2864755,-123.1323094,2,49.2866081162264,-123.132064168253
"264","Theft From Auto Under $5000",2009,1,"1600 HORNBY ST","1600 HORNBY ST 1600 HORNBY ST  , Vancouver, BC, Canada, Vancouver, BC, Canada, Vancouver, BC, Canada",49.27398,-123.13412,2,49.2743294003288,-123.133828896967
"265","Theft From Auto Under $5000",2009,1,"1400 GRANVILLE ST","1400 GRANVILLE ST 1400 GRANVILLE ST  , Vancouver, BC, Canada, Vancouver, BC, Canada, Vancouver, BC, Canada",49.274692,-123.1295579,2,49.2751469651307,-123.129363589524
"266","Theft From Auto Under $5000",2009,1,"2200 W 12TH AVE","2200 W 12TH AVE 2200 W 12TH AVE  , Vancouver, BC, Canada, Vancouver, BC, Canada, Vancouver, BC, Canada",49.2609151,-123.1555828,2,49.2613196371262,-123.15541835533
"267","Theft From Auto Under $5000",2009,1,"2200 W 12TH AVE","2200 W 12TH AVE 2200 W 12TH AVE  , Vancouver, BC, Canada, Vancouver, BC, Canada, Vancouver, BC, Canada",49.2609151,-123.1555828,2,49.2613840724945,-123.155293823087
"268","Theft From Auto Under $5000",2009,1,"2000 NANTON AVE","2000 NANTON AVE 2000 NANTON AVE  , Vancouver, BC, Canada, Vancouver, BC, Canada, Vancouver, BC, Canada",49.2475041,-123.1503917,2,49.2479791420447,-123.150025040881
"269","Theft From Auto Under $5000",2009,1,"5600 STANLEY PARK DR","5600 STANLEY PARK DR 5600 STANLEY PARK DR  , Vancouver, BC, Canada, Vancouver, BC, Canada, Vancouver, BC, Canada",49.312064,-123.1430497,2,49.3125464632628,-123.142899242131
"270","Theft From Auto Under $5000",2009,1,"2200 W 33RD AVE","2200 W 33RD AVE 2200 W 33RD AVE  , Vancouver, BC, Canada, Vancouver, BC, Canada, Vancouver, BC, Canada",49.2420951,-123.1576948,2,49.2424224603842,-123.157287107256
"271","Theft From Auto Under $5000",2009,1,"1400 W BROADWAY AVE","1400 W BROADWAY AVE 1400 W BROADWAY AVE  , Vancouver, BC, Canada, Vancouver, BC, Canada, Vancouver, BC, Canada",49.2634151,-123.1363002,2,49.2639076433139,-123.135984985404
"272","Theft From Auto Under $5000",2009,1,"200 W PENDER ST","200 W PENDER ST 200 W PENDER ST  , Vancouver, BC, Canada, Vancouver, BC, Canada, Vancouver, BC, Canada",49.2814856,-123.1101995,2,49.2817978895076,-123.110039088503
"273","Theft From Auto Under $5000",2009,1,"ROBSON ST / THURLOW ST","ROBSON ST / THURLOW ST ROBSON ST / THURLOW ST  , Vancouver, BC, Canada, Vancouver, BC, Canada, Vancouver, BC, Canada",49.28164,-123.12931,2,49.2818472026771,-123.129104992354
"274","Theft From Auto Under $5000",2009,1,"HOMER ST / W HASTINGS ST","HOMER ST / W HASTINGS ST HOMER ST / W HASTINGS ST  , Vancouver, BC, Canada, Vancouver, BC, Canada, Vancouver, BC, Canada",49.27838,-123.11851,2,49.2786448540105,-123.118402745571
"275","Theft From Auto Under $5000",2009,1,"ABBOTT ST / W PENDER ST","ABBOTT ST / W PENDER ST ABBOTT ST / W PENDER ST  , Vancouver, BC, Canada, Vancouver, BC, Canada, Vancouver, BC, Canada",49.2808,-123.10597,2,49.2810360213838,-123.105755414875
"276","Theft From Auto Under $5000",2009,1,"1000 ROBSON ST","1000 ROBSON ST 1000 ROBSON ST  , Vancouver, BC, Canada, Vancouver, BC, Canada, Vancouver, BC, Canada",49.28333,-123.12328,2,49.2835061167132,-123.123078695753
"277","Theft From Auto Under $5000",2009,1,"700 GRANVILLE ST","700 GRANVILLE ST 700 GRANVILLE ST  , Vancouver, BC, Canada, Vancouver, BC, Canada, Vancouver, BC, Canada",49.2822179,-123.1182166,2,49.2827012346271,-123.117906556255
"278","Theft From Auto Under $5000",2009,1,"1600 HORNBY ST","1600 HORNBY ST 1600 HORNBY ST  , Vancouver, BC, Canada, Vancouver, BC, Canada, Vancouver, BC, Canada",49.27398,-123.13412,2,49.2742297233839,-123.133911877294
"279","Theft From Auto Under $5000",2009,1,"ALE0ANDER ST / MAIN ST","ALE0ANDER ST / MAIN ST ALE0ANDER ST / MAIN ST  , Vancouver, BC, Canada, Vancouver, BC, Canada, Vancouver, BC, Canada",49.22939,-123.10152,2,49.22962075351,-123.101111502497
"280","Theft From Auto Under $5000",2009,1,"1000 CAMBIE ST","1000 CAMBIE ST 1000 CAMBIE ST  , Vancouver, BC, Canada, Vancouver, BC, Canada, Vancouver, BC, Canada",49.2758306,-123.1180589,2,49.2762397921524,-123.117635924297
"281","Theft From Auto Under $5000",2009,1,"6300 MACDONALD ST","6300 MACDONALD ST 6300 MACDONALD ST  , Vancouver, BC, Canada, Vancouver, BC, Canada, Vancouver, BC, Canada",49.229133,-123.1673151,2,49.229317209699,-123.16684125326
"282","Theft From Auto Under $5000",2009,1,"1200 E 2ND AVE","1200 E 2ND AVE 1200 E 2ND AVE  , Vancouver, BC, Canada, Vancouver, BC, Canada, Vancouver, BC, Canada",49.2686247,-123.0786316,2,49.2690778220271,-123.078323553207
"283","Theft From Auto Under $5000",2009,1,"4400 MAIN ST","4400 MAIN ST 4400 MAIN ST  , Vancouver, BC, Canada, Vancouver, BC, Canada, Vancouver, BC, Canada",49.2455259,-123.1010561,2,49.2459561982643,-123.100927587332
"284","Theft From Auto Under $5000",2009,1,"3700 SOPHIA ST","3700 SOPHIA ST 3700 SOPHIA ST  , Vancouver, BC, Canada, Vancouver, BC, Canada, Vancouver, BC, Canada",49.2518808,-123.0983946,2,49.2522626123134,-123.098155171027
"285","Theft From Auto Under $5000",2009,1,"1600 W 5TH AVE","1600 W 5TH AVE 1600 W 5TH AVE  , Vancouver, BC, Canada, Vancouver, BC, Canada, Vancouver, BC, Canada",49.2669351,-123.1411028,2,49.2673651587657,-123.140627948767
"286","Theft From Auto Under $5000",2009,1,"500 E 6TH AVE","500 E 6TH AVE 500 E 6TH AVE  , Vancouver, BC, Canada, Vancouver, BC, Canada, Vancouver, BC, Canada",49.2651451,-123.0927582,2,49.2652472501184,-123.092627759648
"287","Theft From Auto Under $5000",2009,1,"5600 DUNBAR ST","5600 DUNBAR ST 5600 DUNBAR ST  , Vancouver, BC, Canada, Vancouver, BC, Canada, Vancouver, BC, Canada",49.2355582,-123.1852151,2,49.2357974866896,-123.185043661577
"288","Theft From Auto Under $5000",2009,1,"400 SEYMOUR ST","400 SEYMOUR ST 400 SEYMOUR ST  , Vancouver, BC, Canada, Vancouver, BC, Canada, Vancouver, BC, Canada",49.2844743,-123.1129097,2,49.2846368393107,-123.112735859517
"289","Theft From Auto Under $5000",2009,1,"1000 PARK DR","1000 PARK DR 1000 PARK DR  , Vancouver, BC, Canada, Vancouver, BC, Canada, Vancouver, BC, Canada",49.2143772,-123.1302557,2,49.2147848878789,-123.129985701128
"290","Theft From Auto Under $5000",2009,1,"900 CHILCO ST","900 CHILCO ST 900 CHILCO ST  , Vancouver, BC, Canada, Vancouver, BC, Canada, Vancouver, BC, Canada",49.2923129,-123.139757,2,49.2926763366895,-123.139452756069
"291","Theft From Auto Under $5000",2009,1,"ALBERNI ST / BURRARD ST","ALBERNI ST / BURRARD ST ALBERNI ST / BURRARD ST  , Vancouver, BC, Canada, Vancouver, BC, Canada, Vancouver, BC, Canada",49.28627,-123.12532,2,49.2866127734885,-123.125079864019
"292","Theft From Auto Under $5000",2009,1,"300 SW MARINE DR","300 SW MARINE DR 300 SW MARINE DR  , Vancouver, BC, Canada, Vancouver, BC, Canada, Vancouver, BC, Canada",49.211266,-123.112828,2,49.2114510895173,-123.112439334881
"293","Theft From Auto Under $5000",2009,1,"500 E 6TH AVE","500 E 6TH AVE 500 E 6TH AVE  , Vancouver, BC, Canada, Vancouver, BC, Canada, Vancouver, BC, Canada",49.2651451,-123.0927582,2,49.2654056435465,-123.092350894143
"294","Theft From Auto Under $5000",2009,1,"500 W CORDOVA ST","500 W CORDOVA ST 500 W CORDOVA ST  , Vancouver, BC, Canada, Vancouver, BC, Canada, Vancouver, BC, Canada",49.2846311,-123.1110775,2,49.2848390121254,-123.110835492356
"295","Theft From Auto Under $5000",2009,1,"DUNSMUIR ST / RICHARDS ST","DUNSMUIR ST / RICHARDS ST DUNSMUIR ST / RICHARDS ST  , Vancouver, BC, Canada, Vancouver, BC, Canada, Vancouver, BC, Canada",49.28172,-123.11352,2,49.2818349691099,-123.113417157138
"296","Theft From Auto Under $5000",2009,1,"RICHARDS ST / W GEORGIA ST","RICHARDS ST / W GEORGIA ST RICHARDS ST / W GEORGIA ST  , Vancouver, BC, Canada, Vancouver, BC, Canada, Vancouver, BC, Canada",49.28407,-123.12058,2,49.2842428350333,-123.120467989979
"297","Theft From Auto Under $5000",2009,1,"500 RICHARDS ST","500 RICHARDS ST 500 RICHARDS ST  , Vancouver, BC, Canada, Vancouver, BC, Canada, Vancouver, BC, Canada",49.2831573,-123.1129627,2,49.2835782803966,-123.112563691184
"298","Theft From Auto Under $5000",2009,1,"MAPLE ST / W 35TH AVE","MAPLE ST / W 35TH AVE MAPLE ST / W 35TH AVE  , Vancouver, BC, Canada, Vancouver, BC, Canada, Vancouver, BC, Canada",49.2403199,-123.15948,2,49.2407728334978,-123.159161452418
"299","Theft From Auto Under $5000",2009,1,"1600 HORNBY ST","1600 HORNBY ST 1600 HORNBY ST  , Vancouver, BC, Canada, Vancouver, BC, Canada, Vancouver, BC, Canada",49.27398,-123.13412,2,49.2744768553435,-123.133763073254
"300","Theft From Auto Under $5000",2009,1,"HOWE ST / NELSON ST","HOWE ST / NELSON ST HOWE ST / NELSON ST  , Vancouver, BC, Canada, Vancouver, BC, Canada, Vancouver, BC, Canada",49.28348,-123.12956,2,49.2836210607753,-123.129294585743
"301","Theft From Auto Under $5000",2009,1,"1600 HORNBY ST","1600 HORNBY ST 1600 HORNBY ST  , Vancouver, BC, Canada, Vancouver, BC, Canada, Vancouver, BC, Canada",49.27398,-123.13412,2,49.2743014721051,-123.133896243327
"302","Theft From Auto Under $5000",2009,1,"1000 SW MARINE DR","1000 SW MARINE DR 1000 SW MARINE DR  , Vancouver, BC, Canada, Vancouver, BC, Canada, Vancouver, BC, Canada",49.2044059,-123.1306091,2,49.2045378494862,-123.130148965177
"303","Theft From Auto Under $5000",2009,1,"1000 E0PO BLVD","1000 E0PO BLVD 1000 E0PO BLVD  , Vancouver, BC, Canada, Vancouver, BC, Canada, Vancouver, BC, Canada",49.2880569,-123.1156835,2,49.2884955352639,-123.115325297893
"304","Theft From Auto Under $5000",2009,1,"3000 E 1ST AVE","3000 E 1ST AVE 3000 E 1ST AVE  , Vancouver, BC, Canada, Vancouver, BC, Canada, Vancouver, BC, Canada",49.2692551,-123.0412082,2,49.2693568141076,-123.040849776446
"305","Theft From Auto Under $5000",2009,1,"2200 W 12TH AVE","2200 W 12TH AVE 2200 W 12TH AVE  , Vancouver, BC, Canada, Vancouver, BC, Canada, Vancouver, BC, Canada",49.2609151,-123.1555828,2,49.2612071143839,-123.155183241125
"306","Theft From Auto Under $5000",2009,1,"5600 DUNBAR ST","5600 DUNBAR ST 5600 DUNBAR ST  , Vancouver, BC, Canada, Vancouver, BC, Canada, Vancouver, BC, Canada",49.2355582,-123.1852151,2,49.2357924527678,-123.18495769875
"307","Theft From Auto Under $5000",2009,1,"3700 W 6TH AVE","3700 W 6TH AVE 3700 W 6TH AVE  , Vancouver, BC, Canada, Vancouver, BC, Canada, Vancouver, BC, Canada",49.2667651,-123.1860016,2,49.2670701203602,-123.18562161029
"308","Theft From Auto Under $5000",2009,1,"2400 W 43RD AVE","2400 W 43RD AVE 2400 W 43RD AVE  , Vancouver, BC, Canada, Vancouver, BC, Canada, Vancouver, BC, Canada",49.2326351,-123.1615036,2,49.2329540917284,-123.16131507467
"309","Theft From Auto Under $5000",2009,1,"2200 W 12TH AVE","2200 W 12TH AVE 2200 W 12TH AVE  , Vancouver, BC, Canada, Vancouver, BC, Canada, Vancouver, BC, Canada",49.2609151,-123.1555828,2,49.2614097012669,-123.155334515006
"310","Theft From Auto Under $5000",2009,1,"1400 ROBSON ST","1400 ROBSON ST 1400 ROBSON ST  , Vancouver, BC, Canada, Vancouver, BC, Canada, Vancouver, BC, Canada",49.28807,-123.13081,2,49.288191428641,-123.130538667457
"311","Theft From Auto Under $5000",2009,1,"8400 YUKON ST","8400 YUKON ST 8400 YUKON ST  , Vancouver, BC, Canada, Vancouver, BC, Canada, Vancouver, BC, Canada",49.2108069,-123.1149751,2,49.2111857641437,-123.114593300495
"312","Theft From Auto Under $5000",2009,1,"800 BROUGHTON ST","800 BROUGHTON ST 800 BROUGHTON ST  , Vancouver, BC, Canada, Vancouver, BC, Canada, Vancouver, BC, Canada",49.2876825,-123.130007,2,49.2881783388192,-123.129784781046
"313","Theft From Auto Under $5000",2009,1,"2200 W 12TH AVE","2200 W 12TH AVE 2200 W 12TH AVE  , Vancouver, BC, Canada, Vancouver, BC, Canada, Vancouver, BC, Canada",49.2609151,-123.1555828,2,49.2613261433626,-123.155095088565
"314","Theft From Auto Under $5000",2009,1,"RICHARDS ST / W PENDER ST","RICHARDS ST / W PENDER ST RICHARDS ST / W PENDER ST  , Vancouver, BC, Canada, Vancouver, BC, Canada, Vancouver, BC, Canada",49.27924,-123.11916,2,49.2793997310108,-123.118704490891
"315","Theft From Auto Under $5000",2009,1,"400 E HASTINGS ST","400 E HASTINGS ST 400 E HASTINGS ST  , Vancouver, BC, Canada, Vancouver, BC, Canada, Vancouver, BC, Canada",49.2811047,-123.0951412,2,49.2813235682658,-123.094678722661
"316","Theft From Auto Under $5000",2009,1,"3000 W 41ST AVE","3000 W 41ST AVE 3000 W 41ST AVE  , Vancouver, BC, Canada, Vancouver, BC, Canada, Vancouver, BC, Canada",49.2346351,-123.1732627,2,49.2350131691481,-123.17307320842
"317","Theft From Auto Under $5000",2009,1,"KINGSWAY AVE / SIDNEY ST","KINGSWAY AVE / SIDNEY ST KINGSWAY AVE / SIDNEY ST  , Vancouver, BC, Canada, Vancouver, BC, Canada, Vancouver, BC, Canada",49.24677,-123.06275,2,49.2470698330413,-123.06260355984
"318","Theft From Auto Under $5000",2009,1,"6000 BALSAM ST","6000 BALSAM ST 6000 BALSAM ST  , Vancouver, BC, Canada, Vancouver, BC, Canada, Vancouver, BC, Canada",49.2320719,-123.1611193,2,49.2322830875869,-123.160685646246
"319","Theft From Auto Under $5000",2009,1,"2200 W 12TH AVE","2200 W 12TH AVE 2200 W 12TH AVE  , Vancouver, BC, Canada, Vancouver, BC, Canada, Vancouver, BC, Canada",49.2609151,-123.1555828,2,49.2611445692085,-123.155470064108
"320","Theft From Auto Under $5000",2009,1,"1500 HARWOOD ST","1500 HARWOOD ST 1500 HARWOOD ST  , Vancouver, BC, Canada, Vancouver, BC, Canada, Vancouver, BC, Canada",49.2830065,-123.1399126,2,49.2833481096555,-123.139468400958
"321","Theft From Auto Under $5000",2009,1,"700 BEATTY ST","700 BEATTY ST 700 BEATTY ST  , Vancouver, BC, Canada, Vancouver, BC, Canada, Vancouver, BC, Canada",49.2785058,-123.1123711,2,49.2788633720577,-123.111915922801
"322","Theft From Auto Under $5000",2009,1,"100 E BROADWAY AVE","100 E BROADWAY AVE 100 E BROADWAY AVE  , Vancouver, BC, Canada, Vancouver, BC, Canada, Vancouver, BC, Canada",49.2628242,-123.1027275,2,49.2633161042793,-123.102520688205
"323","Theft From Auto Under $5000",2009,1,"W 38TH AVE / WEST BLVD","W 38TH AVE / WEST BLVD W 38TH AVE / WEST BLVD  , Vancouver, BC, Canada, Vancouver, BC, Canada, Vancouver, BC, Canada",49.23743,-123.15696,2,49.2378515834742,-123.156836352211
"324","Theft From Auto Under $5000",2009,1,"2400 W 43RD AVE","2400 W 43RD AVE 2400 W 43RD AVE  , Vancouver, BC, Canada, Vancouver, BC, Canada, Vancouver, BC, Canada",49.2326351,-123.1615036,2,49.2329003085658,-123.161153586588
"325","Theft From Auto Under $5000",2009,1,"3000 W 41ST AVE","3000 W 41ST AVE 3000 W 41ST AVE  , Vancouver, BC, Canada, Vancouver, BC, Canada, Vancouver, BC, Canada",49.2346351,-123.1732627,2,49.2351193907511,-123.173005109754
"326","Theft From Auto Under $5000",2009,1,"2200 W 35TH AVE","2200 W 35TH AVE 2200 W 35TH AVE  , Vancouver, BC, Canada, Vancouver, BC, Canada, Vancouver, BC, Canada",49.2401551,-123.1579124,2,49.2404527602007,-123.15766060618
"327","Theft From Auto Under $5000",2009,1,"1100 HARO ST","1100 HARO ST 1100 HARO ST  , Vancouver, BC, Canada, Vancouver, BC, Canada, Vancouver, BC, Canada",49.2838563,-123.1261119,2,49.2840061082509,-123.125617980993
"328","Theft From Auto Under $5000",2009,1,"1200 NELSON ST","1200 NELSON ST 1200 NELSON ST  , Vancouver, BC, Canada, Vancouver, BC, Canada, Vancouver, BC, Canada",49.2838761,-123.1304213,2,49.2843691025878,-123.130108887972
"329","Theft From Auto Under $5000",2009,1,"800 BUTE ST","800 BUTE ST 800 BUTE ST  , Vancouver, BC, Canada, Vancouver, BC, Canada, Vancouver, BC, Canada",49.2857826,-123.1270719,2,49.2861154574502,-123.126855340626
"330","Theft From Auto Under $5000",2009,1,"3700 W 10TH AVE","3700 W 10TH AVE 3700 W 10TH AVE  , Vancouver, BC, Canada, Vancouver, BC, Canada, Vancouver, BC, Canada",49.2633651,-123.1861135,2,49.2635859393244,-123.185856248185
"331","Theft From Auto Under $5000",2009,1,"600 HAMILTON ST","600 HAMILTON ST 600 HAMILTON ST  , Vancouver, BC, Canada, Vancouver, BC, Canada, Vancouver, BC, Canada",49.2808279,-123.1126066,2,49.2809704195616,-123.112349760956
"332","Theft From Auto Under $5000",2009,1,"100 W GEORGIA ST","100 W GEORGIA ST 100 W GEORGIA ST  , Vancouver, BC, Canada, Vancouver, BC, Canada, Vancouver, BC, Canada",49.2787064,-123.1125227,2,49.2789514886757,-123.112341497402
"333","Theft From Auto Under $5000",2009,1,"900 W BROADWAY AVE","900 W BROADWAY AVE 900 W BROADWAY AVE  , Vancouver, BC, Canada, Vancouver, BC, Canada, Vancouver, BC, Canada",49.2632551,-123.1244116,2,49.2636735733983,-123.124220957204
"334","Theft From Auto Under $5000",2009,1,"GRANVILLE ST / ROBSON ST","GRANVILLE ST / ROBSON ST GRANVILLE ST / ROBSON ST  , Vancouver, BC, Canada, Vancouver, BC, Canada, Vancouver, BC, Canada",49.28559,-123.12634,2,49.2859459492987,-123.126201038848
"335","Theft From Auto Under $5000",2009,1,"BALSAM ST / W 39TH AVE","BALSAM ST / W 39TH AVE BALSAM ST / W 39TH AVE  , Vancouver, BC, Canada, Vancouver, BC, Canada, Vancouver, BC, Canada",49.2592799,-123.16022,2,49.2596638626602,-123.159907414428
"336","Theft From Auto Under $5000",2009,1,"1200 WINDERMERE ST","1200 WINDERMERE ST 1200 WINDERMERE ST  , Vancouver, BC, Canada, Vancouver, BC, Canada, Vancouver, BC, Canada",49.2740039,-123.0362151,2,49.2741750336807,-123.035733935346
"337","Theft From Auto Under $5000",2009,1,"3700 W 10TH AVE","3700 W 10TH AVE 3700 W 10TH AVE  , Vancouver, BC, Canada, Vancouver, BC, Canada, Vancouver, BC, Canada",49.2633651,-123.1861135,2,49.263571840455,-123.185898409567
"338","Theft From Auto Under $5000",2009,1,"400 CAMPBELL AVE","400 CAMPBELL AVE 400 CAMPBELL AVE  , Vancouver, BC, Canada, Vancouver, BC, Canada, Vancouver, BC, Canada",49.27888,-123.08395,2,49.2791267113197,-123.083712626962
"339","Theft From Auto Under $5000",2009,1,"4600 KNIGHT ST","4600 KNIGHT ST 4600 KNIGHT ST  , Vancouver, BC, Canada, Vancouver, BC, Canada, Vancouver, BC, Canada",49.243577,-123.0761037,2,49.2437241538291,-123.075827983645
"340","Theft From Auto Under $5000",2009,1,"1100 W HASTINGS ST","1100 W HASTINGS ST 1100 W HASTINGS ST  , Vancouver, BC, Canada, Vancouver, BC, Canada, Vancouver, BC, Canada",49.2878376,-123.1199394,2,49.2879660174114,-123.119508868154
"341","Theft From Auto Under $5000",2009,1,"DAVIE ST / SEYMOUR ST","DAVIE ST / SEYMOUR ST DAVIE ST / SEYMOUR ST  , Vancouver, BC, Canada, Vancouver, BC, Canada, Vancouver, BC, Canada",49.28139,-123.13274,2,49.2815669146589,-123.132344104027
"342","Theft From Auto Under $5000",2009,1,"1400 W GEORGIA ST","1400 W GEORGIA ST 1400 W GEORGIA ST  , Vancouver, BC, Canada, Vancouver, BC, Canada, Vancouver, BC, Canada",49.2889956,-123.1284695,2,49.2891699669516,-123.128210305885
"343","Theft From Auto Under $5000",2009,1,"1100 HOWE ST","1100 HOWE ST 1100 HOWE ST  , Vancouver, BC, Canada, Vancouver, BC, Canada, Vancouver, BC, Canada",49.278619,-123.1257033,2,49.27910063455,-123.125461784447
"344","Theft From Auto Under $5000",2009,1,"5500 BALSAM ST","5500 BALSAM ST 5500 BALSAM ST  , Vancouver, BC, Canada, Vancouver, BC, Canada, Vancouver, BC, Canada",49.2363615,-123.1611051,2,49.2365311756142,-123.160838876725
"345","Theft From Auto Under $5000",2009,1,"DUNSMUIR ST / HAMILTON ST","DUNSMUIR ST / HAMILTON ST DUNSMUIR ST / HAMILTON ST  , Vancouver, BC, Canada, Vancouver, BC, Canada, Vancouver, BC, Canada",49.28172,-123.11352,2,49.2819142631771,-123.113028826259
"346","Theft From Auto Under $5000",2009,1,"500 W 7TH AVE","500 W 7TH AVE 500 W 7TH AVE  , Vancouver, BC, Canada, Vancouver, BC, Canada, Vancouver, BC, Canada",49.2648169,-123.1149734,2,49.264941212041,-123.114766267894
"347","Theft From Auto Under $5000",2009,1,"800 BURRARD ST","800 BURRARD ST 800 BURRARD ST  , Vancouver, BC, Canada, Vancouver, BC, Canada, Vancouver, BC, Canada",49.2827399,-123.12297,2,49.2829223328455,-123.122602560484
"348","Theft From Auto Under $5000",2009,1,"3600 W 16TH AVE","3600 W 16TH AVE 3600 W 16TH AVE  , Vancouver, BC, Canada, Vancouver, BC, Canada, Vancouver, BC, Canada",49.2577251,-123.1853528,2,49.2578584891768,-123.185170231491
"349","Theft From Auto Under $5000",2009,1,"500 W 14TH AVE","500 W 14TH AVE 500 W 14TH AVE  , Vancouver, BC, Canada, Vancouver, BC, Canada, Vancouver, BC, Canada",49.2586351,-123.1152425,2,49.2589859921754,-123.114922098776
"350","Theft From Auto Under $5000",2009,1,"2100 W 12TH AVE","2100 W 12TH AVE 2100 W 12TH AVE  , Vancouver, BC, Canada, Vancouver, BC, Canada, Vancouver, BC, Canada",49.2608751,-123.1532828,2,49.2613548581376,-123.15290225531
"351","Theft From Auto Under $5000",2009,1,"RICHARDS ST / W GEORGIA ST","RICHARDS ST / W GEORGIA ST RICHARDS ST / W GEORGIA ST  , Vancouver, BC, Canada, Vancouver, BC, Canada, Vancouver, BC, Canada",49.28407,-123.12058,2,49.2845533334046,-123.120285529
"352","Theft From Auto Under $5000",2009,1,"100 ROUNDHOUSE MEWS","100 ROUNDHOUSE MEWS 100 ROUNDHOUSE MEWS  , Vancouver, BC, Canada, Vancouver, BC, Canada, Vancouver, BC, Canada",49.2726982,-123.1223859,2,49.2729645419552,-123.121890712978
"353","Theft From Auto Under $5000",2009,1,"100 E BROADWAY AVE","100 E BROADWAY AVE 100 E BROADWAY AVE  , Vancouver, BC, Canada, Vancouver, BC, Canada, Vancouver, BC, Canada",49.2628242,-123.1027275,2,49.2632137659178,-123.102615844259
"354","Theft From Auto Under $5000",2009,1,"100 W HASTINGS ST","100 W HASTINGS ST 100 W HASTINGS ST  , Vancouver, BC, Canada, Vancouver, BC, Canada, Vancouver, BC, Canada",49.2818961,-123.1074143,2,49.282365201796,-123.107112991576
"355","Theft From Auto Under $5000",2009,1,"100 W CORDOVA ST","100 W CORDOVA ST 100 W CORDOVA ST  , Vancouver, BC, Canada, Vancouver, BC, Canada, Vancouver, BC, Canada",49.2828258,-123.1070009,2,49.2832916003789,-123.106623077321
"356","Theft From Auto Under $5000",2009,1,"800 BURRARD ST","800 BURRARD ST 800 BURRARD ST  , Vancouver, BC, Canada, Vancouver, BC, Canada, Vancouver, BC, Canada",49.2827399,-123.12297,2,49.2831695549876,-123.122644121684
"357","Theft From Auto Under $5000",2009,1,"1100 ROBSON ST","1100 ROBSON ST 1100 ROBSON ST  , Vancouver, BC, Canada, Vancouver, BC, Canada, Vancouver, BC, Canada",49.28457,-123.12536,2,49.2848143975014,-123.124978569187
"358","Theft From Auto Under $5000",2009,1,"SEYMOUR ST / W PENDER ST","SEYMOUR ST / W PENDER ST SEYMOUR ST / W PENDER ST  , Vancouver, BC, Canada, Vancouver, BC, Canada, Vancouver, BC, Canada",49.2808,-123.10597,2,49.281285630665,-123.10558516735
"359","Theft From Auto Under $5000",2009,1,"600 BURRARD ST","600 BURRARD ST 600 BURRARD ST  , Vancouver, BC, Canada, Vancouver, BC, Canada, Vancouver, BC, Canada",49.2853344,-123.1194187,2,49.2854587103983,-123.119224759438
"360","Theft From Auto Under $5000",2009,1,"3600 VANNESS AVE","3600 VANNESS AVE 3600 VANNESS AVE  , Vancouver, BC, Canada, Vancouver, BC, Canada, Vancouver, BC, Canada",49.2361149,-123.027638,2,49.2362380709764,-123.027290048796
"361","Theft From Auto Under $5000",2009,1,"900 HORNBY ST","900 HORNBY ST 900 HORNBY ST  , Vancouver, BC, Canada, Vancouver, BC, Canada, Vancouver, BC, Canada",49.2813167,-123.1234445,2,49.2817563487393,-123.123041139496
"362","Theft From Auto Under $5000",2009,1,"8100 FRENCH ST","8100 FRENCH ST 8100 FRENCH ST  , Vancouver, BC, Canada, Vancouver, BC, Canada, Vancouver, BC, Canada",49.2120945,-123.1388676,2,49.2123093432714,-123.13855302556
"363","Theft From Auto Under $5000",2009,1,"1100 ROBSON ST","1100 ROBSON ST 1100 ROBSON ST  , Vancouver, BC, Canada, Vancouver, BC, Canada, Vancouver, BC, Canada",49.28457,-123.12536,2,49.2849489679405,-123.124948742248
"364","Theft From Auto Under $5000",2009,1,"5900 INVERNESS ST","5900 INVERNESS ST 5900 INVERNESS ST  , Vancouver, BC, Canada, Vancouver, BC, Canada, Vancouver, BC, Canada",49.2307353,-123.0796146,2,49.2309250545439,-123.079220862472
"365","Theft From Auto Under $5000",2009,1,"COLUMBIA ST / POWELL ST","COLUMBIA ST / POWELL ST COLUMBIA ST / POWELL ST  , Vancouver, BC, Canada, Vancouver, BC, Canada, Vancouver, BC, Canada",49.28033,-123.10229,2,49.2806836069105,-123.101829506
"366","Theft From Auto Under $5000",2009,1,"3200 TUPPER ST","3200 TUPPER ST 3200 TUPPER ST  , Vancouver, BC, Canada, Vancouver, BC, Canada, Vancouver, BC, Canada",49.2567819,-123.1157651,2,49.257061686776,-123.115317071133
"367","Theft From Auto Under $5000",2009,1,"1600 W GEORGIA ST","1600 W GEORGIA ST 1600 W GEORGIA ST  , Vancouver, BC, Canada, Vancouver, BC, Canada, Vancouver, BC, Canada",49.2907022,-123.1310635,2,49.2910695248972,-123.130936880298
"368","Theft From Auto Under $5000",2009,1,"BURRARD ST / SMITHE ST","BURRARD ST / SMITHE ST BURRARD ST / SMITHE ST  , Vancouver, BC, Canada, Vancouver, BC, Canada, Vancouver, BC, Canada",49.27962,-123.12829,2,49.2798738788145,-123.127939485511
"369","Theft From Auto Under $5000",2009,1,"4500 DUMFRIES ST","4500 DUMFRIES ST 4500 DUMFRIES ST  , Vancouver, BC, Canada, Vancouver, BC, Canada, Vancouver, BC, Canada",49.2444546,-123.0732506,2,49.2449317495615,-123.072786624758
"370","Theft From Auto Under $5000",2009,1,"5300 SLOCAN ST","5300 SLOCAN ST 5300 SLOCAN ST  , Vancouver, BC, Canada, Vancouver, BC, Canada, Vancouver, BC, Canada",49.2365768,-123.0541451,2,49.2370099108249,-123.053750176921
"371","Theft From Auto Under $5000",2009,1,"3700 W BROADWAY AVE","3700 W BROADWAY AVE 3700 W BROADWAY AVE  , Vancouver, BC, Canada, Vancouver, BC, Canada, Vancouver, BC, Canada",49.2642451,-123.1861008,2,49.2644064647316,-123.185677601953
"372","Theft From Auto Under $5000",2009,1,"E 29TH AVE / ELGIN ST","E 29TH AVE / ELGIN ST E 29TH AVE / ELGIN ST  , Vancouver, BC, Canada, Vancouver, BC, Canada, Vancouver, BC, Canada",49.24401,-123.07003,2,49.244411429011,-123.069929148819
"373","Theft From Auto Under $5000",2009,1,"1400 E 60TH AVE","1400 E 60TH AVE 1400 E 60TH AVE  , Vancouver, BC, Canada, Vancouver, BC, Canada, Vancouver, BC, Canada",49.2153349,-123.0768546,2,49.2156117581646,-123.076412333239
"374","Theft From Auto Under $5000",2009,1,"E 8TH AVE / QUEBEC ST","E 8TH AVE / QUEBEC ST E 8TH AVE / QUEBEC ST  , Vancouver, BC, Canada, Vancouver, BC, Canada, Vancouver, BC, Canada",49.27847,-123.10212,2,49.2787847579469,-123.101825245033
"375","Theft From Auto Under $5000",2009,1,"100 REGIMENT SQ","100 REGIMENT SQ 100 REGIMENT SQ  , Vancouver, BC, Canada, Vancouver, BC, Canada, Vancouver, BC, Canada",49.2784755,-123.1103284,2,49.2786946923722,-123.109830081375
"376","Theft From Auto Under $5000",2009,1,"400 E 5TH AVE","400 E 5TH AVE 400 E 5TH AVE  , Vancouver, BC, Canada, Vancouver, BC, Canada, Vancouver, BC, Canada",49.2661239,-123.0953515,2,49.2664674821002,-123.094945867739
"377","Theft From Auto Under $5000",2009,1,"100 W BROADWAY AVE","100 W BROADWAY AVE 100 W BROADWAY AVE  , Vancouver, BC, Canada, Vancouver, BC, Canada, Vancouver, BC, Canada",49.2629351,-123.1070431,2,49.2630973529423,-123.106769761444
"378","Theft From Auto Under $5000",2009,1,"5500 BALSAM ST","5500 BALSAM ST 5500 BALSAM ST  , Vancouver, BC, Canada, Vancouver, BC, Canada, Vancouver, BC, Canada",49.2363615,-123.1611051,2,49.236558969935,-123.160772881726
"379","Theft From Auto Under $5000",2009,1,"BUTE ST / ROBSON ST","BUTE ST / ROBSON ST BUTE ST / ROBSON ST  , Vancouver, BC, Canada, Vancouver, BC, Canada, Vancouver, BC, Canada",49.28559,-123.12634,2,49.2858795293339,-123.126079852898
"380","Theft From Auto Under $5000",2009,1,"1300 SEYMOUR ST","1300 SEYMOUR ST 1300 SEYMOUR ST  , Vancouver, BC, Canada, Vancouver, BC, Canada, Vancouver, BC, Canada",49.2752817,-123.1268963,2,49.2755257296092,-123.126746074397
"381","Theft From Auto Under $5000",2009,1,"3500 COPLEY ST","3500 COPLEY ST 3500 COPLEY ST  , Vancouver, BC, Canada, Vancouver, BC, Canada, Vancouver, BC, Canada",49.2516056,-123.0571544,2,49.2520532889898,-123.056829709301
"382","Theft From Auto Under $5000",2009,1,"W BROADWAY AVE / YEW ST","W BROADWAY AVE / YEW ST W BROADWAY AVE / YEW ST  , Vancouver, BC, Canada, Vancouver, BC, Canada, Vancouver, BC, Canada",49.26332,-123.12072,2,49.2634581414681,-123.12029933079
"383","Theft From Auto Under $5000",2009,1,"2900 E HASTINGS ST","2900 E HASTINGS ST 2900 E HASTINGS ST  , Vancouver, BC, Canada, Vancouver, BC, Canada, Vancouver, BC, Canada",49.2809951,-123.0438498,2,49.2810970137195,-123.043736685649
"384","Theft From Auto Under $5000",2009,1,"1300 ROBSON ST","1300 ROBSON ST 1300 ROBSON ST  , Vancouver, BC, Canada, Vancouver, BC, Canada, Vancouver, BC, Canada",49.28707,-123.12925,2,49.2872711074538,-123.128948923274
"385","Theft From Auto Under $5000",2009,1,"PACIFIC ST / SEYMOUR ST","PACIFIC ST / SEYMOUR ST PACIFIC ST / SEYMOUR ST  , Vancouver, BC, Canada, Vancouver, BC, Canada, Vancouver, BC, Canada",49.27921,-123.13583,2,49.2796813596104,-123.135401380512
"386","Theft From Auto Under $5000",2009,1,"2000 W 61ST AVE","2000 W 61ST AVE 2000 W 61ST AVE  , Vancouver, BC, Canada, Vancouver, BC, Canada, Vancouver, BC, Canada",49.2159654,-123.1525656,2,49.2160741678482,-123.152199171164
"387","Theft From Auto Under $5000",2009,1,"800 DENMAN ST","800 DENMAN ST 800 DENMAN ST  , Vancouver, BC, Canada, Vancouver, BC, Canada, Vancouver, BC, Canada",49.2912403,-123.1355415,2,49.2916421383915,-123.135058906362
"388","Theft From Auto Under $5000",2009,1,"100 E 8TH AVE","100 E 8TH AVE 100 E 8TH AVE  , Vancouver, BC, Canada, Vancouver, BC, Canada, Vancouver, BC, Canada",49.2635847,-123.1026858,2,49.2638161585352,-123.102492708519
"389","Theft From Auto Under $5000",2009,1,"100 W BROADWAY AVE","100 W BROADWAY AVE 100 W BROADWAY AVE  , Vancouver, BC, Canada, Vancouver, BC, Canada, Vancouver, BC, Canada",49.2629351,-123.1070431,2,49.2632795449085,-123.106735274995
"390","Theft From Auto Under $5000",2009,1,"100 W BROADWAY AVE","100 W BROADWAY AVE 100 W BROADWAY AVE  , Vancouver, BC, Canada, Vancouver, BC, Canada, Vancouver, BC, Canada",49.2629351,-123.1070431,2,49.2630936454746,-123.106576716444
"391","Theft From Auto Under $5000",2009,1,"100 W BROADWAY AVE","100 W BROADWAY AVE 100 W BROADWAY AVE  , Vancouver, BC, Canada, Vancouver, BC, Canada, Vancouver, BC, Canada",49.2629351,-123.1070431,2,49.2632385906863,-123.106733733067
"392","Theft From Auto Under $5000",2009,1,"900 HORNBY ST","900 HORNBY ST 900 HORNBY ST  , Vancouver, BC, Canada, Vancouver, BC, Canada, Vancouver, BC, Canada",49.2813167,-123.1234445,2,49.2817352974086,-123.123175851671
"393","Theft From Auto Under $5000",2009,1,"3600 E 1ST AVE","3600 E 1ST AVE 3600 E 1ST AVE  , Vancouver, BC, Canada, Vancouver, BC, Canada, Vancouver, BC, Canada",49.26892,-123.02626,2,49.2691459703436,-123.025792950335
"394","Theft From Auto Under $5000",2009,1,"BUTE ST / ROBSON ST","BUTE ST / ROBSON ST BUTE ST / ROBSON ST  , Vancouver, BC, Canada, Vancouver, BC, Canada, Vancouver, BC, Canada",49.28559,-123.12634,2,49.2860139001626,-123.125842398231
"395","Theft From Auto Under $5000",2009,1,"900 W HASTINGS ST","900 W HASTINGS ST 900 W HASTINGS ST  , Vancouver, BC, Canada, Vancouver, BC, Canada, Vancouver, BC, Canada",49.28661,-123.11651,2,49.2869888594456,-123.116210357955
"396","Theft From Auto Under $5000",2009,1,"800 BURRARD ST","800 BURRARD ST 800 BURRARD ST  , Vancouver, BC, Canada, Vancouver, BC, Canada, Vancouver, BC, Canada",49.2827399,-123.12297,2,49.2828717074458,-123.122684338621
"397","Theft From Auto Under $5000",2009,1,"W 13TH AVE / WALLACE ST","W 13TH AVE / WALLACE ST W 13TH AVE / WALLACE ST  , Vancouver, BC, Canada, Vancouver, BC, Canada, Vancouver, BC, Canada",49.23754,-123.19093,2,49.2380150292132,-123.190464732258
"398","Theft From Auto Under $5000",2009,1,"4800 FLEMING ST","4800 FLEMING ST 4800 FLEMING ST  , Vancouver, BC, Canada, Vancouver, BC, Canada, Vancouver, BC, Canada",49.2414871,-123.0719732,2,49.2416553040339,-123.071670261168
"399","Theft From Auto Under $5000",2009,1,"200 SW MARINE DR","200 SW MARINE DR 200 SW MARINE DR  , Vancouver, BC, Canada, Vancouver, BC, Canada, Vancouver, BC, Canada",49.2119646,-123.1102959,2,49.2123197122564,-123.110077946312
"400","Theft From Auto Under $5000",2009,1,"900 W CORDOVA ST","900 W CORDOVA ST 900 W CORDOVA ST  , Vancouver, BC, Canada, Vancouver, BC, Canada, Vancouver, BC, Canada",49.2871601,-123.1151302,2,49.287566123799,-123.11467976512
"401","Theft From Auto Under $5000",2009,1,"100 PACIFIC BLVD","100 PACIFIC BLVD 100 PACIFIC BLVD  , Vancouver, BC, Canada, Vancouver, BC, Canada, Vancouver, BC, Canada",49.2769892,-123.1066999,2,49.2772913698012,-123.106228299349
"402","Theft From Auto Under $5000",2009,1,"1000 HOWE ST","1000 HOWE ST 1000 HOWE ST  , Vancouver, BC, Canada, Vancouver, BC, Canada, Vancouver, BC, Canada",49.2796589,-123.1241149,2,49.2799524264319,-123.123659774777
"403","Theft From Auto Under $5000",2009,1,"4300 W 10TH AVE","4300 W 10TH AVE 4300 W 10TH AVE  , Vancouver, BC, Canada, Vancouver, BC, Canada, Vancouver, BC, Canada",49.2636151,-123.2032222,2,49.2639256676165,-123.202748662291
"404","Theft From Auto Under $5000",2009,1,"700 E 14TH AVE","700 E 14TH AVE 700 E 14TH AVE  , Vancouver, BC, Canada, Vancouver, BC, Canada, Vancouver, BC, Canada",49.2577851,-123.0890098,2,49.2581663996727,-123.088548075702
"405","Theft From Auto Under $5000",2009,1,"6500 CAMBIE ST","6500 CAMBIE ST 6500 CAMBIE ST  , Vancouver, BC, Canada, Vancouver, BC, Canada, Vancouver, BC, Canada",49.2260884,-123.1161747,2,49.2263410428223,-123.115798373308
"406","Theft From Auto Under $5000",2009,1,"4300 W 10TH AVE","4300 W 10TH AVE 4300 W 10TH AVE  , Vancouver, BC, Canada, Vancouver, BC, Canada, Vancouver, BC, Canada",49.2636151,-123.2032222,2,49.264027274496,-123.203033313068
"407","Theft From Auto Under $5000",2009,1,"E 12TH AVE / RENFREW ST","E 12TH AVE / RENFREW ST E 12TH AVE / RENFREW ST  , Vancouver, BC, Canada, Vancouver, BC, Canada, Vancouver, BC, Canada",49.25922,-123.05479,2,49.2593860254694,-123.05463710738
"408","Theft From Auto Under $5000",2009,1,"1400 QUEBEC ST","1400 QUEBEC ST 1400 QUEBEC ST  , Vancouver, BC, Canada, Vancouver, BC, Canada, Vancouver, BC, Canada",49.2736051,-123.1019349,2,49.2737760077644,-123.101576211568
"409","Theft From Auto Under $5000",2009,1,"1400 QUEBEC ST","1400 QUEBEC ST 1400 QUEBEC ST  , Vancouver, BC, Canada, Vancouver, BC, Canada, Vancouver, BC, Canada",49.2736051,-123.1019349,2,49.2739434146645,-123.101437425899
"410","Theft From Auto Under $5000",2009,1,"6200 OAK ST","6200 OAK ST 6200 OAK ST  , Vancouver, BC, Canada, Vancouver, BC, Canada, Vancouver, BC, Canada",49.2291893,-123.1280441,2,49.2296368029116,-123.127662681158
"411","Theft From Auto Under $5000",2009,1,"1400 ROBSON ST","1400 ROBSON ST 1400 ROBSON ST  , Vancouver, BC, Canada, Vancouver, BC, Canada, Vancouver, BC, Canada",49.28807,-123.13081,2,49.2882768421958,-123.130328674952
"412","Theft From Auto Under $5000",2009,1,"300 E 6TH AVE","300 E 6TH AVE 300 E 6TH AVE  , Vancouver, BC, Canada, Vancouver, BC, Canada, Vancouver, BC, Canada",49.2653535,-123.0986041,2,49.265711352876,-123.098153815012
"413","Theft From Auto Under $5000",2009,1,"7700 GRANVILLE ST","7700 GRANVILLE ST 7700 GRANVILLE ST  , Vancouver, BC, Canada, Vancouver, BC, Canada, Vancouver, BC, Canada",49.2157116,-123.1400542,2,49.2160833899166,-123.139623722313
"414","Theft From Auto Under $5000",2009,1,"1200 KINGSWAY AVE","1200 KINGSWAY AVE 1200 KINGSWAY AVE  , Vancouver, BC, Canada, Vancouver, BC, Canada, Vancouver, BC, Canada",49.251876,-123.079789,2,49.2520618395707,-123.079564877118
"415","Theft From Auto Under $5000",2009,1,"800 BURRARD ST","800 BURRARD ST 800 BURRARD ST  , Vancouver, BC, Canada, Vancouver, BC, Canada, Vancouver, BC, Canada",49.2827399,-123.12297,2,49.2828920024103,-123.122775321907
"416","Theft From Auto Under $5000",2009,1,"1700 E 14TH AVE","1700 E 14TH AVE 1700 E 14TH AVE  , Vancouver, BC, Canada, Vancouver, BC, Canada, Vancouver, BC, Canada",49.2576446,-123.0696185,2,49.2581319391845,-123.069312979274
"417","Theft From Auto Under $5000",2009,1,"200 UNION ST","200 UNION ST 200 UNION ST  , Vancouver, BC, Canada, Vancouver, BC, Canada, Vancouver, BC, Canada",49.2775444,-123.0995769,2,49.2780055918252,-123.099462324393
"418","Theft From Auto Under $5000",2009,1,"2600 W 5TH AVE","2600 W 5TH AVE 2600 W 5TH AVE  , Vancouver, BC, Canada, Vancouver, BC, Canada, Vancouver, BC, Canada",49.2673151,-123.1647407,2,49.2674239424815,-123.164483088862
"419","Theft From Auto Under $5000",2009,1,"FRANKLIN ST / LAKEWOOD DR","FRANKLIN ST / LAKEWOOD DR FRANKLIN ST / LAKEWOOD DR  , Vancouver, BC, Canada, Vancouver, BC, Canada, Vancouver, BC, Canada",49.2823,-123.07921,2,49.2825926625843,-123.078820757042
"420","Theft From Auto Under $5000",2009,1,"2400 E BROADWAY AVE","2400 E BROADWAY AVE 2400 E BROADWAY AVE  , Vancouver, BC, Canada, Vancouver, BC, Canada, Vancouver, BC, Canada",49.2619739,-123.0564193,2,49.2620892855993,-123.056095375015
"421","Theft From Auto Under $5000",2009,1,"2700 CAMBRIDGE ST","2700 CAMBRIDGE ST 2700 CAMBRIDGE ST  , Vancouver, BC, Canada, Vancouver, BC, Canada, Vancouver, BC, Canada",49.2865951,-123.0490593,2,49.2870109819244,-123.048801200574
"422","Theft From Auto Under $5000",2009,1,"100 W PENDER ST","100 W PENDER ST 100 W PENDER ST  , Vancouver, BC, Canada, Vancouver, BC, Canada, Vancouver, BC, Canada",49.28096,-123.10846,2,49.2811910622474,-123.107969975951
"423","Theft From Auto Under $5000",2009,1,"600 CAMPBELL AVE","600 CAMPBELL AVE 600 CAMPBELL AVE  , Vancouver, BC, Canada, Vancouver, BC, Canada, Vancouver, BC, Canada",49.27893,-123.08465,2,49.2791505045449,-123.084540610163
"424","Theft From Auto Under $5000",2009,1,"800 BEATTY ST","800 BEATTY ST 800 BEATTY ST  , Vancouver, BC, Canada, Vancouver, BC, Canada, Vancouver, BC, Canada",49.2774488,-123.1139524,2,49.277857855358,-123.113548112711
"425","Theft From Auto Under $5000",2009,1,"1100 BURNABY ST","1100 BURNABY ST 1100 BURNABY ST  , Vancouver, BC, Canada, Vancouver, BC, Canada, Vancouver, BC, Canada",49.2796268,-123.1325035,2,49.2799749758733,-123.1322713381
"426","Theft From Auto Under $5000",2009,1,"2500 W BROADWAY AVE","2500 W BROADWAY AVE 2500 W BROADWAY AVE  , Vancouver, BC, Canada, Vancouver, BC, Canada, Vancouver, BC, Canada",49.2638551,-123.1626329,2,49.2640184611769,-123.16225445408
"427","Theft From Auto Under $5000",2009,1,"1100 E 16TH AVE","1100 E 16TH AVE 1100 E 16TH AVE  , Vancouver, BC, Canada, Vancouver, BC, Canada, Vancouver, BC, Canada",49.2561945,-123.0814621,2,49.2566261652273,-123.081276496087
"428","Theft From Auto Under $5000",2009,1,"5700 ALMA ST","5700 ALMA ST 5700 ALMA ST  , Vancouver, BC, Canada, Vancouver, BC, Canada, Vancouver, BC, Canada",49.2346184,-123.186624,2,49.234883358383,-123.186515458888
"429","Theft From Auto Under $5000",2009,1,"4300 W 10TH AVE","4300 W 10TH AVE 4300 W 10TH AVE  , Vancouver, BC, Canada, Vancouver, BC, Canada, Vancouver, BC, Canada",49.2636151,-123.2032222,2,49.2637949847468,-123.203091155197
"430","Theft From Auto Under $5000",2009,1,"2500 W BROADWAY AVE","2500 W BROADWAY AVE 2500 W BROADWAY AVE  , Vancouver, BC, Canada, Vancouver, BC, Canada, Vancouver, BC, Canada",49.2638551,-123.1626329,2,49.2643425113235,-123.162321705853
"431","Theft From Auto Under $5000",2009,1,"500 BURRARD ST","500 BURRARD ST 500 BURRARD ST  , Vancouver, BC, Canada, Vancouver, BC, Canada, Vancouver, BC, Canada",49.2864999,-123.11779,2,49.2868930940665,-123.117340953923
"432","Theft From Auto Under $5000",2009,1,"5900 WILLOW ST","5900 WILLOW ST 5900 WILLOW ST  , Vancouver, BC, Canada, Vancouver, BC, Canada, Vancouver, BC, Canada",49.2316797,-123.1235835,2,49.2320002966218,-123.123173385745
"433","Theft From Auto Under $5000",2009,1,"600 W 41ST AVE","600 W 41ST AVE 600 W 41ST AVE  , Vancouver, BC, Canada, Vancouver, BC, Canada, Vancouver, BC, Canada",49.2334308,-123.1170049,2,49.2335447473656,-123.116610693743
"434","Theft From Auto Under $5000",2009,1,"W 42ND AVE / WEST BLVD","W 42ND AVE / WEST BLVD W 42ND AVE / WEST BLVD  , Vancouver, BC, Canada, Vancouver, BC, Canada, Vancouver, BC, Canada",49.23388,-123.18206,2,49.2341282820036,-123.181714208569
"435","Theft From Auto Under $5000",2009,1,"500 BURRARD ST","500 BURRARD ST 500 BURRARD ST  , Vancouver, BC, Canada, Vancouver, BC, Canada, Vancouver, BC, Canada",49.2864999,-123.11779,2,49.2866999600569,-123.117667861546
"436","Theft From Auto Under $5000",2009,1,"700 KINGSWAY AVE","700 KINGSWAY AVE 700 KINGSWAY AVE  , Vancouver, BC, Canada, Vancouver, BC, Canada, Vancouver, BC, Canada",49.2562847,-123.0892375,2,49.2566287769974,-123.088866780075
"437","Theft From Auto Under $5000",2009,1,"100 KEEFER PL","100 KEEFER PL 100 KEEFER PL  , Vancouver, BC, Canada, Vancouver, BC, Canada, Vancouver, BC, Canada",49.279606,-123.107833,2,49.2798627097947,-123.107500229405
